[
  {
    "name": "Hartsfield Jackson Atlanta Intl",
    "city": "Atlanta",
    "country": "USA",
    "iata_code": "ATL",
    "_geoloc": {
      "lat": "33.636719",
      "lng": "-84.428067"
    },
    "links_count": "1826",
    "objectID": "3682"
  },
  {
    "name": "Chicago Ohare Intl",
    "city": "Chicago",
    "country": "USA",
    "iata_code": "ORD",
    "_geoloc": {
      "lat": "41.978603",
      "lng": "-87.904842"
    },
    "links_count": "1108",
    "objectID": "3830"
  },
  {
    "name": "Kapital Intl",
    "city": "Peking",
    "country": "Kina",
    "iata_code": "MYCKET",
    "_geoloc": {
      "lat": "40.080111",
      "lng": "116.584556"
    },
    "links_count": "1069",
    "objectID": "3364"
  },
  {
    "name": "Heathrow",
    "city": "London",
    "country": "Storbritannien",
    "iata_code": "LHR",
    "_geoloc": {
      "lat": "51.4775",
      "lng": "-0.461389"
    },
    "links_count": "1051",
    "objectID": "507"
  },
  {
    "name": "Charles De Gaulle",
    "city": "Paris",
    "country": "Frankrike",
    "iata_code": "CDG",
    "_geoloc": {
      "lat": "49.012779",
      "lng": "2.55"
    },
    "links_count": "1041",
    "objectID": "1382"
  },
  {
    "name": "Los Angeles Intl",
    "city": "Los Angeles",
    "country": "USA",
    "iata_code": "SLAPP",
    "_geoloc": {
      "lat": "33.942536",
      "lng": "-118.408075"
    },
    "links_count": "990",
    "objectID": "3484"
  },
  {
    "name": "Frankfurt Main",
    "city": "Frankfurt",
    "country": "Tyskland",
    "iata_code": "FRÅN",
    "_geoloc": {
      "lat": "50.026421",
      "lng": "8.543125"
    },
    "links_count": "990",
    "objectID": "340"
  },
  {
    "name": "Dallas fort intl",
    "city": "Dallas-Fort Worth",
    "country": "USA",
    "iata_code": "DFW",
    "_geoloc": {
      "lat": "32.896828",
      "lng": "-97.037997"
    },
    "links_count": "936",
    "objectID": "3670"
  },
  {
    "name": "John F Kennedy Intl",
    "city": "New York",
    "country": "USA",
    "iata_code": "JFK",
    "_geoloc": {
      "lat": "40.639751",
      "lng": "-73.778925"
    },
    "links_count": "911",
    "objectID": "3797"
  },
  {
    "name": "Schiphol flygplats",
    "city": "Amsterdam",
    "country": "Nederländerna",
    "iata_code": "AMS",
    "_geoloc": {
      "lat": "52.308613",
      "lng": "4.763889"
    },
    "links_count": "903",
    "objectID": "580"
  },
  {
    "name": "Pudong",
    "city": "Shanghai",
    "country": "Kina",
    "iata_code": "PVG",
    "_geoloc": {
      "lat": "31.143378",
      "lng": "121.805214"
    },
    "links_count": "825",
    "objectID": "3406"
  },
  {
    "name": "Changi Intl",
    "city": "Singapore",
    "country": "Singapore",
    "iata_code": "UTAN",
    "_geoloc": {
      "lat": "1.350189",
      "lng": "103.994433"
    },
    "links_count": "820",
    "objectID": "3316"
  },
  {
    "name": "Barcelona",
    "city": "Barcelona",
    "country": "Spanien",
    "iata_code": "BCN",
    "_geoloc": {
      "lat": "41.297078",
      "lng": "2.078464"
    },
    "links_count": "783",
    "objectID": "1218"
  },
  {
    "name": "Incheon Intl",
    "city": "Söul",
    "country": "Sydkorea",
    "iata_code": "ICN",
    "_geoloc": {
      "lat": "37.469075",
      "lng": "126.450517"
    },
    "links_count": "740",
    "objectID": "3930"
  },
  {
    "name": "Denver Intl",
    "city": "Denver",
    "country": "USA",
    "iata_code": "DEN",
    "_geoloc": {
      "lat": "39.861656",
      "lng": "-104.673178"
    },
    "links_count": "735",
    "objectID": "3751"
  },
  {
    "name": "Miami Intl",
    "city": "Miami",
    "country": "USA",
    "iata_code": "MIN",
    "_geoloc": {
      "lat": "25.79325",
      "lng": "-80.290556"
    },
    "links_count": "734",
    "objectID": "3576"
  },
  {
    "name": "Franz Josef Strauss",
    "city": "München",
    "country": "Tyskland",
    "iata_code": "MUC",
    "_geoloc": {
      "lat": "48.353783",
      "lng": "11.786086"
    },
    "links_count": "728",
    "objectID": "346"
  },
  {
    "name": "Ataturk",
    "city": "Istanbul",
    "country": "Turkiet",
    "iata_code": "VARA",
    "_geoloc": {
      "lat": "40.976922",
      "lng": "28.814606"
    },
    "links_count": "719",
    "objectID": "1701"
  },
  {
    "name": "Hongkong Intl",
    "city": "Hongkong",
    "country": "Hongkong",
    "iata_code": "HKG",
    "_geoloc": {
      "lat": "22.308919",
      "lng": "113.914603"
    },
    "links_count": "710",
    "objectID": "3077"
  },
  {
    "name": "Dubai Intl",
    "city": "Dubai",
    "country": "Förenade Arabemiraten",
    "iata_code": "DXB",
    "_geoloc": {
      "lat": "25.252778",
      "lng": "55.364444"
    },
    "links_count": "710",
    "objectID": "2188"
  },
  {
    "name": "Gatwick",
    "city": "London",
    "country": "Storbritannien",
    "iata_code": "LGW",
    "_geoloc": {
      "lat": "51.148056",
      "lng": "-0.190278"
    },
    "links_count": "708",
    "objectID": "502"
  },
  {
    "name": "Baiyun Intl",
    "city": "Guangzhou",
    "country": "Kina",
    "iata_code": "KAN",
    "_geoloc": {
      "lat": "23.392436",
      "lng": "113.298786"
    },
    "links_count": "674",
    "objectID": "3370"
  },
  {
    "name": "Fiumicino",
    "city": "Rom",
    "country": "Italien",
    "iata_code": "FCO",
    "_geoloc": {
      "lat": "41.804475",
      "lng": "12.250797"
    },
    "links_count": "662",
    "objectID": "1555"
  },
  {
    "name": "Barajas",
    "city": "Madrid",
    "country": "Spanien",
    "iata_code": "VANSINNIG",
    "_geoloc": {
      "lat": "40.493556",
      "lng": "-3.566764"
    },
    "links_count": "661",
    "objectID": "1229"
  },
  {
    "name": "Suvarnabhumi Intl",
    "city": "Bangkok",
    "country": "Thailand",
    "iata_code": "BKK",
    "_geoloc": {
      "lat": "13.681108",
      "lng": "100.747283"
    },
    "links_count": "656",
    "objectID": "3885"
  },
  {
    "name": "Domododevo",
    "city": "Moskva",
    "country": "Ryssland",
    "iata_code": "DME",
    "_geoloc": {
      "lat": "55.408611",
      "lng": "37.906111"
    },
    "links_count": "649",
    "objectID": "4029"
  },
  {
    "name": "Shuangliu",
    "city": "Chengdu",
    "country": "Kina",
    "iata_code": "CTU",
    "_geoloc": {
      "lat": "30.578528",
      "lng": "103.947086"
    },
    "links_count": "647",
    "objectID": "3395"
  },
  {
    "name": "Lester B Pearson Intl",
    "city": "Toronto",
    "country": "Kanada",
    "iata_code": "YYZ",
    "_geoloc": {
      "lat": "43.677223",
      "lng": "-79.630556"
    },
    "links_count": "636",
    "objectID": "193"
  },
  {
    "name": "Bryssel Natl",
    "city": "Bryssel",
    "country": "Belgien",
    "iata_code": "BRO",
    "_geoloc": {
      "lat": "50.901389",
      "lng": "4.484444"
    },
    "links_count": "631",
    "objectID": "302"
  },
  {
    "name": "Manchester",
    "city": "Manchester",
    "country": "Storbritannien",
    "iata_code": "ETT",
    "_geoloc": {
      "lat": "53.353744",
      "lng": "-2.27495"
    },
    "links_count": "627",
    "objectID": "478"
  },
  {
    "name": "Schwechat",
    "city": "Wien",
    "country": "Österrike",
    "iata_code": "LIV",
    "_geoloc": {
      "lat": "48.110278",
      "lng": "16.569722"
    },
    "links_count": "616",
    "objectID": "1613"
  },
  {
    "name": "Charlotte Douglas Intl",
    "city": "Charlotte",
    "country": "USA",
    "iata_code": "CLT",
    "_geoloc": {
      "lat": "35.214",
      "lng": "-80.943139"
    },
    "links_count": "600",
    "objectID": "3876"
  },
  {
    "name": "Philadelphia Intl",
    "city": "Philadelphia",
    "country": "USA",
    "iata_code": "PHL",
    "_geoloc": {
      "lat": "39.871944",
      "lng": "-75.241139"
    },
    "links_count": "576",
    "objectID": "3752"
  },
  {
    "name": "Narita Intl",
    "city": "Tokyo",
    "country": "Japan",
    "iata_code": "NRT",
    "_geoloc": {
      "lat": "35.764722",
      "lng": "140.386389"
    },
    "links_count": "575",
    "objectID": "2279"
  },
  {
    "name": "Düsseldorf",
    "city": "Düsseldorf",
    "country": "Tyskland",
    "iata_code": "SÅ",
    "_geoloc": {
      "lat": "51.289453",
      "lng": "6.766775"
    },
    "links_count": "570",
    "objectID": "345"
  },
  {
    "name": "Xianyang",
    "city": "Xi'an",
    "country": "Kina",
    "iata_code": "XIY",
    "_geoloc": {
      "lat": "34.447119",
      "lng": "108.751592"
    },
    "links_count": "563",
    "objectID": "3379"
  },
  {
    "name": "Son Sant Joan",
    "city": "Palma de Mallorca",
    "country": "Spanien",
    "iata_code": "PMI",
    "_geoloc": {
      "lat": "39.55361",
      "lng": "2.727778"
    },
    "links_count": "548",
    "objectID": "3998"
  },
  {
    "name": "Wujiaba",
    "city": "Kunming",
    "country": "Kina",
    "iata_code": "KMG",
    "_geoloc": {
      "lat": "24.992364",
      "lng": "102.743536"
    },
    "links_count": "545",
    "objectID": "3382"
  },
  {
    "name": "Jiangbei",
    "city": "Chongqing",
    "country": "Kina",
    "iata_code": "CKG",
    "_geoloc": {
      "lat": "29.719217",
      "lng": "106.641678"
    },
    "links_count": "540",
    "objectID": "3393"
  },
  {
    "name": "Indira Gandhi Intl",
    "city": "Delhi",
    "country": "Indien",
    "iata_code": "AV",
    "_geoloc": {
      "lat": "28.5665",
      "lng": "77.103088"
    },
    "links_count": "527",
    "objectID": "3093"
  },
  {
    "name": "Taoyuan Intl",
    "city": "Taipei",
    "country": "Taiwan",
    "iata_code": "TPE",
    "_geoloc": {
      "lat": "25.077731",
      "lng": "121.232822"
    },
    "links_count": "527",
    "objectID": "2276"
  },
  {
    "name": "Kuala Lumpur Intl",
    "city": "Kuala Lumpur",
    "country": "Malaysia",
    "iata_code": "KUL",
    "_geoloc": {
      "lat": "2.745578",
      "lng": "101.709917"
    },
    "links_count": "514",
    "objectID": "3304"
  },
  {
    "name": "Phoenix Sky Hamn Intl",
    "city": "Phoenix",
    "country": "USA",
    "iata_code": "PHX",
    "_geoloc": {
      "lat": "33.434278",
      "lng": "-112.011583"
    },
    "links_count": "508",
    "objectID": "3462"
  },
  {
    "name": "Xiaoshan",
    "city": "Hangzhou",
    "country": "Kina",
    "iata_code": "HGH",
    "_geoloc": {
      "lat": "30.229503",
      "lng": "120.434453"
    },
    "links_count": "506",
    "objectID": "3386"
  },
  {
    "name": "Newark Frihet Intl",
    "city": "Newark",
    "country": "USA",
    "iata_code": "EWR",
    "_geoloc": {
      "lat": "40.6925",
      "lng": "-74.168667"
    },
    "links_count": "505",
    "objectID": "3494"
  },
  {
    "name": "San Francisco Intl",
    "city": "San Francisco",
    "country": "USA",
    "iata_code": "SFO",
    "_geoloc": {
      "lat": "37.618972",
      "lng": "-122.374889"
    },
    "links_count": "499",
    "objectID": "3469"
  },
  {
    "name": "Mc Carran Intl",
    "city": "Las Vegas",
    "country": "USA",
    "iata_code": "DEN",
    "_geoloc": {
      "lat": "36.080056",
      "lng": "-115.15225"
    },
    "links_count": "498",
    "objectID": "3877"
  },
  {
    "name": "Zürich",
    "city": "Zürich",
    "country": "Schweiz",
    "iata_code": "ZRH",
    "_geoloc": {
      "lat": "47.464722",
      "lng": "8.549167"
    },
    "links_count": "494",
    "objectID": "1678"
  },
  {
    "name": "George Bush Interkontinental",
    "city": "Houston",
    "country": "USA",
    "iata_code": "IAH",
    "_geoloc": {
      "lat": "29.984433",
      "lng": "-95.341442"
    },
    "links_count": "485",
    "objectID": "3550"
  },
  {
    "name": "Licenciado Benito Juarez Intl",
    "city": "Mexico City",
    "country": "Mexico",
    "iata_code": "MEX",
    "_geoloc": {
      "lat": "19.436303",
      "lng": "-99.072097"
    },
    "links_count": "485",
    "objectID": "1824"
  },
  {
    "name": "Abu Dhabi Intl",
    "city": "Abu Dhabi",
    "country": "Förenade Arabemiraten",
    "iata_code": "VOFF",
    "_geoloc": {
      "lat": "24.432972",
      "lng": "54.651138"
    },
    "links_count": "477",
    "objectID": "2179"
  },
  {
    "name": "Orlando Intl",
    "city": "Orlando",
    "country": "USA",
    "iata_code": "MCO",
    "_geoloc": {
      "lat": "28.429394",
      "lng": "-81.308994"
    },
    "links_count": "475",
    "objectID": "3878"
  },
  {
    "name": "Baoan Intl",
    "city": "Shenzhen",
    "country": "Kina",
    "iata_code": "SZX",
    "_geoloc": {
      "lat": "22.639258",
      "lng": "113.810664"
    },
    "links_count": "467",
    "objectID": "3374"
  },
  {
    "name": "Gaoqi",
    "city": "Xiamen",
    "country": "Kina",
    "iata_code": "XMN",
    "_geoloc": {
      "lat": "24.544036",
      "lng": "118.127739"
    },
    "links_count": "466",
    "objectID": "3383"
  },
  {
    "name": "Kastrup",
    "city": "Köpenhamn",
    "country": "Danmark",
    "iata_code": "CPH",
    "_geoloc": {
      "lat": "55.617917",
      "lng": "12.655972"
    },
    "links_count": "457",
    "objectID": "609"
  },
  {
    "name": "Chhatrapati Shivaji Intl",
    "city": "Mumbai",
    "country": "Indien",
    "iata_code": "BRA",
    "_geoloc": {
      "lat": "19.088686",
      "lng": "72.867919"
    },
    "links_count": "452",
    "objectID": "2997"
  },
  {
    "name": "Arlanda",
    "city": "Stockholm",
    "country": "Sverige",
    "iata_code": "ARN",
    "_geoloc": {
      "lat": "59.651944",
      "lng": "17.918611"
    },
    "links_count": "439",
    "objectID": "737"
  },
  {
    "name": "Lissabon",
    "city": "Lissabon",
    "country": "Portugal",
    "iata_code": "LILJA",
    "_geoloc": {
      "lat": "38.781311",
      "lng": "-9.135919"
    },
    "links_count": "63w",
    "objectID": "1638"
  },
  {
    "name": "Detroit Metro Wayne Co",
    "city": "Detroit",
    "country": "USA",
    "iata_code": "DTW",
    "_geoloc": {
      "lat": "42.212444",
      "lng": "-83.353389"
    },
    "links_count": "433",
    "objectID": "3645"
  },
  {
    "name": "Minneapolis St Paul Intl",
    "city": "Minneapolis",
    "country": "USA",
    "iata_code": "MSP",
    "_geoloc": {
      "lat": "44.881956",
      "lng": "-93.221767"
    },
    "links_count": "430",
    "objectID": "3858"
  },
  {
    "name": "General Edward Lawrence Logan Intl",
    "city": "Boston",
    "country": "USA",
    "iata_code": "SKOG",
    "_geoloc": {
      "lat": "42.364347",
      "lng": "-71.005181"
    },
    "links_count": "424",
    "objectID": "3448"
  },
  {
    "name": "Tegel",
    "city": "Berlin",
    "country": "Tyskland",
    "iata_code": "TXL",
    "_geoloc": {
      "lat": "52.559686",
      "lng": "13.287711"
    },
    "links_count": "418",
    "objectID": "351"
  },
  {
    "name": "Dublin",
    "city": "Dublin",
    "country": "Irland",
    "iata_code": "DUBBA",
    "_geoloc": {
      "lat": "53.421333",
      "lng": "-6.270075"
    },
    "links_count": "414",
    "objectID": "599"
  },
  {
    "name": "Hongqiao Intl",
    "city": "Shanghai",
    "country": "Kina",
    "iata_code": "SHA",
    "_geoloc": {
      "lat": "31.197875",
      "lng": "121.336319"
    },
    "links_count": "411",
    "objectID": "3391"
  },
  {
    "name": "Sydney Intl",
    "city": "Sydney",
    "country": "Australien",
    "iata_code": "SYD",
    "_geoloc": {
      "lat": "-33.946111",
      "lng": "151.177222"
    },
    "links_count": "410",
    "objectID": "3361"
  },
  {
    "name": "Malaga",
    "city": "Malaga",
    "country": "Spanien",
    "iata_code": "AGP",
    "_geoloc": {
      "lat": "36.6749",
      "lng": "-4.499106"
    },
    "links_count": "410",
    "objectID": "1230"
  },
  {
    "name": "Orly",
    "city": "Paris",
    "country": "Frankrike",
    "iata_code": "ORY",
    "_geoloc": {
      "lat": "48.725278",
      "lng": "2.359444"
    },
    "links_count": "404",
    "objectID": "1386"
  },
  {
    "name": "Eleftherios Venizelos Intl",
    "city": "Aten",
    "country": "Grekland",
    "iata_code": "ATH",
    "_geoloc": {
      "lat": "37.936358",
      "lng": "23.944467"
    },
    "links_count": "403",
    "objectID": "3941"
  },
  {
    "name": "Seattle Tacoma Intl",
    "city": "Seattle",
    "country": "USA",
    "iata_code": "HAV",
    "_geoloc": {
      "lat": "47.449",
      "lng": "-122.309306"
    },
    "links_count": "403",
    "objectID": "3577"
  },
  {
    "name": "Honremetyevo",
    "city": "Moskva",
    "country": "Ryssland",
    "iata_code": "SÅ",
    "_geoloc": {
      "lat": "55.972642",
      "lng": "37.414589"
    },
    "links_count": "397",
    "objectID": "2985"
  },
  {
    "name": "Ronald Reagan Washington Natl",
    "city": "Washington",
    "country": "USA",
    "iata_code": "DCA",
    "_geoloc": {
      "lat": "38.852083",
      "lng": "-77.037722"
    },
    "links_count": "388",
    "objectID": "3520"
  },
  {
    "name": "Guarulhos Gov Andre Franco Montouro",
    "city": "Sao Paulo",
    "country": "Brasilien",
    "iata_code": "TRANA",
    "_geoloc": {
      "lat": "-23.432075",
      "lng": "-46.469511"
    },
    "links_count": "387",
    "objectID": "2564"
  },
  {
    "name": "Washington Dulles Intl",
    "city": "Washington",
    "country": "USA",
    "iata_code": "DEM",
    "_geoloc": {
      "lat": "38.944533",
      "lng": "-77.455811"
    },
    "links_count": "386",
    "objectID": "3714"
  },
  {
    "name": "Ninoy Aquino Intl",
    "city": "Manila",
    "country": "Filippinerna",
    "iata_code": "MNL",
    "_geoloc": {
      "lat": "14.508647",
      "lng": "121.019581"
    },
    "links_count": "386",
    "objectID": "2397"
  },
  {
    "name": "Malpensa",
    "city": "Milano",
    "country": "Italien",
    "iata_code": "MXP",
    "_geoloc": {
      "lat": "45.630606",
      "lng": "8.728111"
    },
    "links_count": "386",
    "objectID": "1524"
  },
  {
    "name": "Huanghua",
    "city": "Changcha",
    "country": "Kina",
    "iata_code": "CSX",
    "_geoloc": {
      "lat": "28.189158",
      "lng": "113.219633"
    },
    "links_count": "377",
    "objectID": "3371"
  },
  {
    "name": "Doha Intl",
    "city": "Doha",
    "country": "Qatar",
    "iata_code": "DOH",
    "_geoloc": {
      "lat": "25.261125",
      "lng": "51.565056"
    },
    "links_count": "377",
    "objectID": "2241"
  },
  {
    "name": "Kung Abdulaziz Intl",
    "city": "Jeddah",
    "country": "Saudiarabien",
    "iata_code": "JED",
    "_geoloc": {
      "lat": "21.679564",
      "lng": "39.156536"
    },
    "links_count": "377",
    "objectID": "2072"
  },
  {
    "name": "Liuting",
    "city": "Qingdao",
    "country": "Kina",
    "iata_code": "MAN",
    "_geoloc": {
      "lat": "36.266108",
      "lng": "120.374436"
    },
    "links_count": "376",
    "objectID": "3390"
  },
  {
    "name": "Fort Lauderdale Hollywood Intl",
    "city": "Fort Lauderdale",
    "country": "USA",
    "iata_code": "FLL",
    "_geoloc": {
      "lat": "26.072583",
      "lng": "-80.15275"
    },
    "links_count": "374",
    "objectID": "3533"
  },
  {
    "name": "Tianhe",
    "city": "Wuhan",
    "country": "Kina",
    "iata_code": "WUH",
    "_geoloc": {
      "lat": "30.783758",
      "lng": "114.2081"
    },
    "links_count": "374",
    "objectID": "3376"
  },
  {
    "name": "Pierre Elliott Trudeau Intl",
    "city": "Montreal",
    "country": "Kanada",
    "iata_code": "YUL",
    "_geoloc": {
      "lat": "45.470556",
      "lng": "-73.740833"
    },
    "links_count": "371",
    "objectID": "146"
  },
  {
    "name": "Pulkovo",
    "city": "St. Petersburg",
    "country": "Ryssland",
    "iata_code": "LED",
    "_geoloc": {
      "lat": "59.800292",
      "lng": "30.262503"
    },
    "links_count": "368",
    "objectID": "2948"
  },
  {
    "name": "Soekarno Hatta Intl",
    "city": "Jakarta",
    "country": "Indonesiska",
    "iata_code": "CGK",
    "_geoloc": {
      "lat": "-6.125567",
      "lng": "106.655897"
    },
    "links_count": "367",
    "objectID": "3275"
  },
  {
    "name": "Gardermoen",
    "city": "Oslo",
    "country": "Norge",
    "iata_code": "OSL",
    "_geoloc": {
      "lat": "60.193917",
      "lng": "11.100361"
    },
    "links_count": "363",
    "objectID": "644"
  },
  {
    "name": "Ruzyne",
    "city": "Prag",
    "country": "Tjeckien",
    "iata_code": "PRG",
    "_geoloc": {
      "lat": "50.100833",
      "lng": "14.26"
    },
    "links_count": "361",
    "objectID": "1587"
  },
  {
    "name": "Xinzheng",
    "city": "Zhengzhou",
    "country": "Kina",
    "iata_code": "CGO",
    "_geoloc": {
      "lat": "34.519672",
      "lng": "113.840889"
    },
    "links_count": "348",
    "objectID": "3375"
  },
  {
    "name": "Stansted",
    "city": "London",
    "country": "Storbritannien",
    "iata_code": "STN",
    "_geoloc": {
      "lat": "51.885",
      "lng": "0.235"
    },
    "links_count": "343",
    "objectID": "548"
  },
  {
    "name": "Lukou",
    "city": "Nanjing",
    "country": "Kina",
    "iata_code": "NKG",
    "_geoloc": {
      "lat": "31.742042",
      "lng": "118.862025"
    },
    "links_count": "330",
    "objectID": "3388"
  },
  {
    "name": "Genève Cointrin",
    "city": "Genève",
    "country": "Schweiz",
    "iata_code": "GVA",
    "_geoloc": {
      "lat": "46.238064",
      "lng": "6.10895"
    },
    "links_count": "329",
    "objectID": "1665"
  },
  {
    "name": "Johannesburg Intl",
    "city": "Johannesburg",
    "country": "Sydafrika",
    "iata_code": "JNB",
    "_geoloc": {
      "lat": "-26.139166",
      "lng": "28.246"
    },
    "links_count": "321",
    "objectID": "813"
  },
  {
    "name": "Hamburg",
    "city": "Hamburg",
    "country": "Tyskland",
    "iata_code": "HONOM",
    "_geoloc": {
      "lat": "53.630389",
      "lng": "9.988228"
    },
    "links_count": "321",
    "objectID": "342"
  },
  {
    "name": "Helsingfors Vanda",
    "city": "Helsingfors",
    "country": "Finland",
    "iata_code": "HEL",
    "_geoloc": {
      "lat": "60.317222",
      "lng": "24.963333"
    },
    "links_count": "320",
    "objectID": "421"
  },
  {
    "name": "Teneriffa Sur",
    "city": "Teneriffa",
    "country": "Spanien",
    "iata_code": "TFS",
    "_geoloc": {
      "lat": "28.044475",
      "lng": "-16.572489"
    },
    "links_count": "318",
    "objectID": "1056"
  },
  {
    "name": "Vakten",
    "city": "New York",
    "country": "USA",
    "iata_code": "LGA",
    "_geoloc": {
      "lat": "40.777245",
      "lng": "-73.872608"
    },
    "links_count": "316",
    "objectID": "3697"
  },
  {
    "name": "Tokyo Intl",
    "city": "Tokyo",
    "country": "Japan",
    "iata_code": "HND",
    "_geoloc": {
      "lat": "35.552258",
      "lng": "139.779694"
    },
    "links_count": "315",
    "objectID": "2359"
  },
  {
    "name": "Vancouver Intl",
    "city": "Vancouver",
    "country": "Kanada",
    "iata_code": "YVR",
    "_geoloc": {
      "lat": "49.193889",
      "lng": "-123.184444"
    },
    "links_count": "315",
    "objectID": "156"
  },
  {
    "name": "Alicante",
    "city": "Alicante",
    "country": "Spanien",
    "iata_code": "ALC",
    "_geoloc": {
      "lat": "38.282169",
      "lng": "-0.558156"
    },
    "links_count": "314",
    "objectID": "1212"
  },
  {
    "name": "Cancun Intl",
    "city": "Cancun",
    "country": "Mexico",
    "iata_code": "CUN",
    "_geoloc": {
      "lat": "21.036528",
      "lng": "-86.877083"
    },
    "links_count": "311",
    "objectID": "1852"
  },
  {
    "name": "Gran Canaria",
    "city": "Gran Canaria",
    "country": "Spanien",
    "iata_code": "LPA",
    "_geoloc": {
      "lat": "27.931886",
      "lng": "-15.386586"
    },
    "links_count": "308",
    "objectID": "1054"
  },
  {
    "name": "Eldorado Intl",
    "city": "Bogota",
    "country": "Colombia",
    "iata_code": "GUD",
    "_geoloc": {
      "lat": "4.701594",
      "lng": "-74.146947"
    },
    "links_count": "307",
    "objectID": "2709"
  },
  {
    "name": "Diwopu",
    "city": "Urumqi",
    "country": "Kina",
    "iata_code": "URC",
    "_geoloc": {
      "lat": "43.907106",
      "lng": "87.474244"
    },
    "links_count": "306",
    "objectID": "3399"
  },
  {
    "name": "Kansai",
    "city": "Osaka",
    "country": "Japan",
    "iata_code": "KIX",
    "_geoloc": {
      "lat": "34.4347222",
      "lng": "135.244167"
    },
    "links_count": "304",
    "objectID": "3992"
  },
  {
    "name": "Kairo Intl",
    "city": "Kairo",
    "country": "Egypten",
    "iata_code": "KORPRAL",
    "_geoloc": {
      "lat": "30.121944",
      "lng": "31.405556"
    },
    "links_count": "303",
    "objectID": "1128"
  },
  {
    "name": "Brisbane Intl",
    "city": "Brisbane",
    "country": "Australien",
    "iata_code": "BNE",
    "_geoloc": {
      "lat": "-27.384167",
      "lng": "153.1175"
    },
    "links_count": "296",
    "objectID": "3320"
  },
  {
    "name": "Binhai",
    "city": "Tianjin",
    "country": "Kina",
    "iata_code": "TSN",
    "_geoloc": {
      "lat": "39.124353",
      "lng": "117.346183"
    },
    "links_count": "294",
    "objectID": "3368"
  },
  {
    "name": "Sabiha Gokcen",
    "city": "Istanbul",
    "country": "Turkiet",
    "iata_code": "SÅG",
    "_geoloc": {
      "lat": "40.898553",
      "lng": "29.309219"
    },
    "links_count": "290",
    "objectID": "4317"
  },
  {
    "name": "Baltimore Washington Intl",
    "city": "Baltimore",
    "country": "USA",
    "iata_code": "BWI",
    "_geoloc": {
      "lat": "39.175361",
      "lng": "-76.668333"
    },
    "links_count": "286",
    "objectID": "3849"
  },
  {
    "name": "Zhoushuizi",
    "city": "Dalian",
    "country": "Kina",
    "iata_code": "DLC",
    "_geoloc": {
      "lat": "38.965667",
      "lng": "121.5386"
    },
    "links_count": "285",
    "objectID": "3404"
  },
  {
    "name": "Salt Lake City Intl",
    "city": "Salt Lake City",
    "country": "USA",
    "iata_code": "SLC",
    "_geoloc": {
      "lat": "40.788389",
      "lng": "-111.977772"
    },
    "links_count": "278",
    "objectID": "3536"
  },
  {
    "name": "Tampa Intl",
    "city": "Tampa",
    "country": "USA",
    "iata_code": "TPA",
    "_geoloc": {
      "lat": "27.975472",
      "lng": "-82.53325"
    },
    "links_count": "276",
    "objectID": "3646"
  },
  {
    "name": "Kung Khaled Intl",
    "city": "Riyadh",
    "country": "Saudiarabien",
    "iata_code": "SJÄL",
    "_geoloc": {
      "lat": "24.95764",
      "lng": "46.698776"
    },
    "links_count": "276",
    "objectID": "2082"
  },
  {
    "name": "Sankt exupery",
    "city": "Lyon",
    "country": "Frankrike",
    "iata_code": "LJUS",
    "_geoloc": {
      "lat": "45.726387",
      "lng": "5.090833"
    },
    "links_count": "275",
    "objectID": "1335"
  },
  {
    "name": "Longdongbao",
    "city": "Guiyang",
    "country": "Kina",
    "iata_code": "KWE",
    "_geoloc": {
      "lat": "26.538522",
      "lng": "106.800703"
    },
    "links_count": "274",
    "objectID": "3394"
  },
  {
    "name": "Stuttgart",
    "city": "Stuttgart",
    "country": "Tyskland",
    "iata_code": "SANKT",
    "_geoloc": {
      "lat": "48.689878",
      "lng": "9.221964"
    },
    "links_count": "273",
    "objectID": "350"
  },
  {
    "name": "Shenyang Taoxian internationella flygplats",
    "city": "Shenyang",
    "country": "Kina",
    "iata_code": "HON",
    "_geoloc": {
      "lat": "41.3824",
      "lng": "123.2901"
    },
    "links_count": "272",
    "objectID": "4144"
  },
  {
    "name": "Chicago Midway Intl",
    "city": "Chicago",
    "country": "USA",
    "iata_code": "MDW",
    "_geoloc": {
      "lat": "41.785972",
      "lng": "-87.752417"
    },
    "links_count": "271",
    "objectID": "3747"
  },
  {
    "name": "Ben Gurion",
    "city": "Tel Aviv",
    "country": "Israel",
    "iata_code": "TLV",
    "_geoloc": {
      "lat": "32.011389",
      "lng": "34.886667"
    },
    "links_count": "271",
    "objectID": "1590"
  },
  {
    "name": "Jinan",
    "city": "Jinan",
    "country": "Kina",
    "iata_code": "TNA",
    "_geoloc": {
      "lat": "36.857214",
      "lng": "117.215992"
    },
    "links_count": "270",
    "objectID": "4108"
  },
  {
    "name": "Melbourne Intl",
    "city": "Melbourne",
    "country": "Australien",
    "iata_code": "MEL",
    "_geoloc": {
      "lat": "-37.673333",
      "lng": "144.843333"
    },
    "links_count": "269",
    "objectID": "3339"
  },
  {
    "name": "Franska Rivieran",
    "city": "Nice",
    "country": "Frankrike",
    "iata_code": "NCE",
    "_geoloc": {
      "lat": "43.658411",
      "lng": "7.215872"
    },
    "links_count": "269",
    "objectID": "1354"
  },
  {
    "name": "Changle",
    "city": "Fuzhou",
    "country": "Kina",
    "iata_code": "ELD",
    "_geoloc": {
      "lat": "25.935064",
      "lng": "119.663272"
    },
    "links_count": "266",
    "objectID": "3385"
  },
  {
    "name": "Koln Bonn",
    "city": "Köln",
    "country": "Tyskland",
    "iata_code": "CGN",
    "_geoloc": {
      "lat": "50.865917",
      "lng": "7.142744"
    },
    "links_count": "265",
    "objectID": "344"
  },
  {
    "name": "Provence",
    "city": "Marseille",
    "country": "Frankrike",
    "iata_code": "FRU",
    "_geoloc": {
      "lat": "43.435555",
      "lng": "5.213611"
    },
    "links_count": "265",
    "objectID": "1353"
  },
  {
    "name": "Birmingham",
    "city": "Birmingham",
    "country": "Storbritannien",
    "iata_code": "BHX",
    "_geoloc": {
      "lat": "52.453856",
      "lng": "-1.748028"
    },
    "links_count": "264",
    "objectID": "469"
  },
  {
    "name": "Taiping",
    "city": "Harbin",
    "country": "Kina",
    "iata_code": "HRB",
    "_geoloc": {
      "lat": "45.623403",
      "lng": "126.250328"
    },
    "links_count": "259",
    "objectID": "3400"
  },
  {
    "name": "Jomo Kenyatta Internationella",
    "city": "Nairobi",
    "country": "Kenya",
    "iata_code": "NBO",
    "_geoloc": {
      "lat": "-1.319167",
      "lng": "36.9275"
    },
    "links_count": "258",
    "objectID": "4059"
  },
  {
    "name": "Antalya",
    "city": "Antalya",
    "country": "Turkiet",
    "iata_code": "AYTAYT",
    "_geoloc": {
      "lat": "36.898731",
      "lng": "30.800461"
    },
    "links_count": "253",
    "objectID": "1688"
  },
  {
    "name": "Mohammed V Intl",
    "city": "Casablanca",
    "country": "Marocko",
    "iata_code": "CMN",
    "_geoloc": {
      "lat": "33.367467",
      "lng": "-7.589967"
    },
    "links_count": "250",
    "objectID": "1074"
  },
  {
    "name": "Louis Armstrong Nya Orleans Intl",
    "city": "New Orleans",
    "country": "USA",
    "iata_code": "MSY",
    "_geoloc": {
      "lat": "29.993389",
      "lng": "-90.258028"
    },
    "links_count": "248",
    "objectID": "3861"
  },
  {
    "name": "Venedig Tessera",
    "city": "Venedig",
    "country": "Italien",
    "iata_code": "VCE",
    "_geoloc": {
      "lat": "45.505278",
      "lng": "12.351944"
    },
    "links_count": "245",
    "objectID": "1551"
  },
  {
    "name": "Okecie",
    "city": "Warszawa",
    "country": "Polen",
    "iata_code": "WAW",
    "_geoloc": {
      "lat": "52.16575",
      "lng": "20.967122"
    },
    "links_count": "240",
    "objectID": "679"
  },
  {
    "name": "Kuwait Intl",
    "city": "Kuwait",
    "country": "Kuwait",
    "iata_code": "KWI",
    "_geoloc": {
      "lat": "29.226567",
      "lng": "47.968928"
    },
    "links_count": "239",
    "objectID": "2176"
  },
  {
    "name": "San Diego Intl",
    "city": "San Diego",
    "country": "USA",
    "iata_code": "SAN",
    "_geoloc": {
      "lat": "32.733556",
      "lng": "-117.189667"
    },
    "links_count": "238",
    "objectID": "3731"
  },
  {
    "name": "Edinburgh",
    "city": "Edinburgh",
    "country": "Storbritannien",
    "iata_code": "EDI",
    "_geoloc": {
      "lat": "55.95",
      "lng": "-3.3725"
    },
    "links_count": "237",
    "objectID": "535"
  },
  {
    "name": "Honolulu Intl",
    "city": "Honolulu",
    "country": "USA",
    "iata_code": "UN1",
    "_geoloc": {
      "lat": "21.318681",
      "lng": "-157.922428"
    },
    "links_count": "233",
    "objectID": "3728"
  },
  {
    "name": "Catania Fontanarossa",
    "city": "Catania",
    "country": "Italien",
    "iata_code": "CTA",
    "_geoloc": {
      "lat": "37.466781",
      "lng": "15.0664"
    },
    "links_count": "233",
    "objectID": "1509"
  },
  {
    "name": "Lanzarote",
    "city": "Las Palmas",
    "country": "Spanien",
    "iata_code": "ESS",
    "_geoloc": {
      "lat": "28.945464",
      "lng": "-13.605225"
    },
    "links_count": "233",
    "objectID": "1055"
  },
  {
    "name": "Portland Intl",
    "city": "Portland",
    "country": "USA",
    "iata_code": "PDX",
    "_geoloc": {
      "lat": "45.588722",
      "lng": "-122.5975"
    },
    "links_count": "230",
    "objectID": "3720"
  },
  {
    "name": "Jorge Chavez Intl",
    "city": "Lima",
    "country": "Peru",
    "iata_code": "LIM",
    "_geoloc": {
      "lat": "-12.021889",
      "lng": "-77.114319"
    },
    "links_count": "230",
    "objectID": "2789"
  },
  {
    "name": "Wuxu",
    "city": "Nanning",
    "country": "Kina",
    "iata_code": "NNG",
    "_geoloc": {
      "lat": "22.608267",
      "lng": "108.172442"
    },
    "links_count": "228",
    "objectID": "3373"
  },
  {
    "name": "Calgary Intl",
    "city": "Calgary",
    "country": "Kanada",
    "iata_code": "YYC",
    "_geoloc": {
      "lat": "51.113888",
      "lng": "-114.020278"
    },
    "links_count": "228",
    "objectID": "178"
  },
  {
    "name": "Henri Coanda",
    "city": "Bukarest",
    "country": "Rumänien",
    "iata_code": "Engångslösenpris",
    "_geoloc": {
      "lat": "44.572161",
      "lng": "26.102178"
    },
    "links_count": "227",
    "objectID": "1657"
  },
  {
    "name": "Luqa",
    "city": "Malta",
    "country": "Malta",
    "iata_code": "MLA",
    "_geoloc": {
      "lat": "35.857497",
      "lng": "14.4775"
    },
    "links_count": "226",
    "objectID": "1606"
  },
  {
    "name": "Drottning Alia Intl",
    "city": "Amman",
    "country": "Jordanien",
    "iata_code": "AMM",
    "_geoloc": {
      "lat": "31.722556",
      "lng": "35.993214"
    },
    "links_count": "223",
    "objectID": "2170"
  },
  {
    "name": "Lambert St Louis Intl",
    "city": "St. Louis",
    "country": "USA",
    "iata_code": "STL",
    "_geoloc": {
      "lat": "38.748697",
      "lng": "-90.370028"
    },
    "links_count": "221",
    "objectID": "3678"
  },
  {
    "name": "Wusu",
    "city": "Taiyuan",
    "country": "Kina",
    "iata_code": "TYN",
    "_geoloc": {
      "lat": "37.746897",
      "lng": "112.628428"
    },
    "links_count": "220",
    "objectID": "3369"
  },
  {
    "name": "Nikos Kazantzakis",
    "city": "Heraklion",
    "country": "Grekland",
    "iata_code": "HENNES",
    "_geoloc": {
      "lat": "35.339719",
      "lng": "25.180297"
    },
    "links_count": "219",
    "objectID": "1452"
  },
  {
    "name": "Phoenix Internationella",
    "city": "Sanya",
    "country": "Kina",
    "iata_code": "SYX",
    "_geoloc": {
      "lat": "18.302897",
      "lng": "109.412272"
    },
    "links_count": "218",
    "objectID": "4030"
  },
  {
    "name": "Tansonnhat Intl",
    "city": "Ho Chi Minh-staden",
    "country": "Vietnam",
    "iata_code": "SGN",
    "_geoloc": {
      "lat": "10.818797",
      "lng": "106.651856"
    },
    "links_count": "218",
    "objectID": "3205"
  },
  {
    "name": "Meilan",
    "city": "Haikou",
    "country": "Kina",
    "iata_code": "RÄTTIGHETER",
    "_geoloc": {
      "lat": "19.934856",
      "lng": "110.458961"
    },
    "links_count": "215",
    "objectID": "4120"
  },
  {
    "name": "Luton",
    "city": "London",
    "country": "Storbritannien",
    "iata_code": "LTN",
    "_geoloc": {
      "lat": "51.874722",
      "lng": "-0.368333"
    },
    "links_count": "214",
    "objectID": "492"
  },
  {
    "name": "Liangjiang",
    "city": "Guilin",
    "country": "Kina",
    "iata_code": "KWL",
    "_geoloc": {
      "lat": "25.218106",
      "lng": "110.039197"
    },
    "links_count": "214",
    "objectID": "3372"
  },
  {
    "name": "Bole Intl",
    "city": "Addis Abeba",
    "country": "Etiopien",
    "iata_code": "ADDERA",
    "_geoloc": {
      "lat": "8.977889",
      "lng": "38.799319"
    },
    "links_count": "214",
    "objectID": "1107"
  },
  {
    "name": "Auckland Intl",
    "city": "Auckland",
    "country": "Nya Zeeland",
    "iata_code": "AKL)AKL",
    "_geoloc": {
      "lat": "-37.008056",
      "lng": "174.791667"
    },
    "links_count": "213",
    "objectID": "2006"
  },
  {
    "name": "Tocumen Intl",
    "city": "Panama City",
    "country": "Panama",
    "iata_code": "PTY",
    "_geoloc": {
      "lat": "9.071364",
      "lng": "-79.383453"
    },
    "links_count": "212",
    "objectID": "1871"
  },
  {
    "name": "Chennai Intl",
    "city": "Madras",
    "country": "Indien",
    "iata_code": "JORD",
    "_geoloc": {
      "lat": "12.994414",
      "lng": "80.180517"
    },
    "links_count": "211",
    "objectID": "3144"
  },
  {
    "name": "Faro",
    "city": "Faro",
    "country": "Portugal",
    "iata_code": "GA.",
    "_geoloc": {
      "lat": "37.014425",
      "lng": "-7.965911"
    },
    "links_count": "211",
    "objectID": "1626"
  },
  {
    "name": "Seeb Intl",
    "city": "Muscat",
    "country": "Oman",
    "iata_code": "MCT",
    "_geoloc": {
      "lat": "23.593278",
      "lng": "58.284444"
    },
    "links_count": "208",
    "objectID": "2194"
  },
  {
    "name": "Luis Munoz Marin Intl",
    "city": "San Juan",
    "country": "Puerto Rico",
    "iata_code": "SJU",
    "_geoloc": {
      "lat": "18.439417",
      "lng": "-66.001833"
    },
    "links_count": "204",
    "objectID": "2890"
  },
  {
    "name": "Bandaranaike Intl Colombo",
    "city": "Colombo",
    "country": "Sri Lanka",
    "iata_code": "CMB",
    "_geoloc": {
      "lat": "7.180756",
      "lng": "79.884117"
    },
    "links_count": "203",
    "objectID": "3024"
  },
  {
    "name": "Riga Intl",
    "city": "Riga",
    "country": "Lettland",
    "iata_code": "RIX",
    "_geoloc": {
      "lat": "56.923611",
      "lng": "23.971111"
    },
    "links_count": "202",
    "objectID": "3953"
  },
  {
    "name": "Boryspil Intl",
    "city": "Kiev",
    "country": "Ukraina",
    "iata_code": "KBP",
    "_geoloc": {
      "lat": "50.345",
      "lng": "30.894722"
    },
    "links_count": "202",
    "objectID": "2939"
  },
  {
    "name": "Porto",
    "city": "Porto",
    "country": "Portugal",
    "iata_code": "OPO",
    "_geoloc": {
      "lat": "41.248055",
      "lng": "-8.681389"
    },
    "links_count": "202",
    "objectID": "1636"
  },
  {
    "name": "Ibiza",
    "city": "Ibiza",
    "country": "Spanien",
    "iata_code": "IBZIBZ",
    "_geoloc": {
      "lat": "38.872858",
      "lng": "1.373117"
    },
    "links_count": "202",
    "objectID": "1225"
  },
  {
    "name": "Bali Ngurah Rai",
    "city": "Denpasar",
    "country": "Indonesiska",
    "iata_code": "DPS",
    "_geoloc": {
      "lat": "-8.748169",
      "lng": "115.167172"
    },
    "links_count": "00-tal",
    "objectID": "3940"
  },
  {
    "name": "Bristol",
    "city": "Bristol",
    "country": "Storbritannien",
    "iata_code": "BRS",
    "_geoloc": {
      "lat": "51.382669",
      "lng": "-2.719089"
    },
    "links_count": "200",
    "objectID": "490"
  },
  {
    "name": "Koltsovo",
    "city": "Yekaterinburg",
    "country": "Ryssland",
    "iata_code": "SVX",
    "_geoloc": {
      "lat": "56.743108",
      "lng": "60.802728"
    },
    "links_count": "199",
    "objectID": "2975"
  },
  {
    "name": "President Juscelino Kubitschek",
    "city": "Brasilia",
    "country": "Brasilien",
    "iata_code": "BSB",
    "_geoloc": {
      "lat": "-15.8711",
      "lng": "-47.918625"
    },
    "links_count": "197",
    "objectID": "2531"
  },
  {
    "name": "Glasgow",
    "city": "Glasgow",
    "country": "Storbritannien",
    "iata_code": "GLA",
    "_geoloc": {
      "lat": "55.871944",
      "lng": "-4.433056"
    },
    "links_count": "196",
    "objectID": "534"
  },
  {
    "name": "Bangalore",
    "city": "Bangalore",
    "country": "Indien",
    "iata_code": "ORF",
    "_geoloc": {
      "lat": "12.949986",
      "lng": "77.668206"
    },
    "links_count": "195",
    "objectID": "3131"
  },
  {
    "name": "Sharjah Intl",
    "city": "Sharjah",
    "country": "Förenade Arabemiraten",
    "iata_code": "SHJ",
    "_geoloc": {
      "lat": "25.328575",
      "lng": "55.51715"
    },
    "links_count": "195",
    "objectID": "2191"
  },
  {
    "name": "Ferihegy",
    "city": "Budapest",
    "country": "Ungern",
    "iata_code": "KNOPP",
    "_geoloc": {
      "lat": "47.436933",
      "lng": "19.255592"
    },
    "links_count": "195",
    "objectID": "1489"
  },
  {
    "name": "Netaji Subhash Chandra Bose Intl",
    "city": "Kolkata",
    "country": "Indien",
    "iata_code": "CCU",
    "_geoloc": {
      "lat": "22.654739",
      "lng": "88.446722"
    },
    "links_count": "194",
    "objectID": "3043"
  },
  {
    "name": "Galeao Antonio Carlos Jobim",
    "city": "Rio De Janeiro",
    "country": "Brasilien",
    "iata_code": "SPELNING",
    "_geoloc": {
      "lat": "-22.808903",
      "lng": "-43.243647"
    },
    "links_count": "194",
    "objectID": "2560"
  },
  {
    "name": "Nottingham östra Midlands",
    "city": "East Midlands",
    "country": "Storbritannien",
    "iata_code": "MOR",
    "_geoloc": {
      "lat": "52.831111",
      "lng": "-1.328056"
    },
    "links_count": "192",
    "objectID": "523"
  },
  {
    "name": "Fuerteventura",
    "city": "Fuerteventura",
    "country": "Spanien",
    "iata_code": "VAR",
    "_geoloc": {
      "lat": "28.452717",
      "lng": "-13.863761"
    },
    "links_count": "192",
    "objectID": "1051"
  },
  {
    "name": "Larnaca",
    "city": "Larnaca",
    "country": "Cypern",
    "iata_code": "LCA",
    "_geoloc": {
      "lat": "34.875117",
      "lng": "33.62485"
    },
    "links_count": "190",
    "objectID": "1197"
  },
  {
    "name": "EuroAirport Basel-Mulhouse-Freiburg",
    "city": "Basel",
    "country": "Schweiz",
    "iata_code": "BSL",
    "_geoloc": {
      "lat": "47.59",
      "lng": "7.529167"
    },
    "links_count": "189",
    "objectID": "4053"
  },
  {
    "name": "Don Miguel Hidalgo Y Costilla Intl",
    "city": "Guadalajara",
    "country": "Mexico",
    "iata_code": "GDL",
    "_geoloc": {
      "lat": "20.5218",
      "lng": "-103.311167"
    },
    "links_count": "185",
    "objectID": "1804"
  },
  {
    "name": "Nantes Atlantique",
    "city": "Nantes",
    "country": "Frankrike",
    "iata_code": "NTE",
    "_geoloc": {
      "lat": "47.153189",
      "lng": "-1.610725"
    },
    "links_count": "183",
    "objectID": "1418"
  },
  {
    "name": "Perth Intl",
    "city": "Perth",
    "country": "Australien",
    "iata_code": "FÖR",
    "_geoloc": {
      "lat": "-31.940278",
      "lng": "115.966944"
    },
    "links_count": "182",
    "objectID": "3351"
  },
  {
    "name": "Simon Bolivar Intl",
    "city": "Caracas",
    "country": "Venezuela",
    "iata_code": "CCS",
    "_geoloc": {
      "lat": "10.603117",
      "lng": "-66.990583"
    },
    "links_count": "38-talet",
    "objectID": "2851"
  },
  {
    "name": "Tolmachevo",
    "city": "Novosibirsk",
    "country": "Ryssland",
    "iata_code": "OVB",
    "_geoloc": {
      "lat": "55.012622",
      "lng": "82.650656"
    },
    "links_count": "177",
    "objectID": "4078"
  },
  {
    "name": "Houari Boumediene",
    "city": "Alger",
    "country": "Algeriet",
    "iata_code": "ALG",
    "_geoloc": {
      "lat": "36.691014",
      "lng": "3.215408"
    },
    "links_count": "176",
    "objectID": "210"
  },
  {
    "name": "Bologna",
    "city": "Bologna",
    "country": "Italien",
    "iata_code": "BLQ",
    "_geoloc": {
      "lat": "44.535444",
      "lng": "11.288667"
    },
    "links_count": "176",
    "objectID": "1538"
  },
  {
    "name": "Karthago",
    "city": "Tunis",
    "country": "Tunisien",
    "iata_code": "GÖRA",
    "_geoloc": {
      "lat": "36.851033",
      "lng": "10.227217"
    },
    "links_count": "175",
    "objectID": "287"
  },
  {
    "name": "Kabin flygplats",
    "city": "Hohhot",
    "country": "Kina",
    "iata_code": "DET",
    "_geoloc": {
      "lat": "40.851422",
      "lng": "111.824103"
    },
    "links_count": "174",
    "objectID": "6345"
  },
  {
    "name": "Noibai Intl",
    "city": "Hanoi",
    "country": "Vietnam",
    "iata_code": "HAN",
    "_geoloc": {
      "lat": "21.221192",
      "lng": "105.807178"
    },
    "links_count": "174",
    "objectID": "3199"
  },
  {
    "name": "Makedonien",
    "city": "Thessaloniki",
    "country": "Grekland",
    "iata_code": "SKG",
    "_geoloc": {
      "lat": "40.519725",
      "lng": "22.97095"
    },
    "links_count": "174",
    "objectID": "1486"
  },
  {
    "name": "Changbei Intl",
    "city": "Nanchang",
    "country": "Kina",
    "iata_code": "KHN",
    "_geoloc": {
      "lat": "28.865",
      "lng": "115.9"
    },
    "links_count": "172",
    "objectID": "3384"
  },
  {
    "name": "Vnukovo",
    "city": "Moskva",
    "country": "Ryssland",
    "iata_code": "WK",
    "_geoloc": {
      "lat": "55.591531",
      "lng": "37.261486"
    },
    "links_count": "171",
    "objectID": "2988"
  },
  {
    "name": "Belgrad",
    "city": "Belgrad",
    "country": "Serbien",
    "iata_code": "TIGGA",
    "_geoloc": {
      "lat": "44.818444",
      "lng": "20.309139"
    },
    "links_count": "171",
    "objectID": "1739"
  },
  {
    "name": "Fukuoka",
    "city": "Fukuoka",
    "country": "Japan",
    "iata_code": "FUK",
    "_geoloc": {
      "lat": "33.585942",
      "lng": "130.450686"
    },
    "links_count": "170",
    "objectID": "2305"
  },
  {
    "name": "Bahrain Intl",
    "city": "Bahrain",
    "country": "Bahrain",
    "iata_code": "ÄH",
    "_geoloc": {
      "lat": "26.270834",
      "lng": "50.63361"
    },
    "links_count": "170",
    "objectID": "2057"
  },
  {
    "name": "Chubu Centrair Intl",
    "city": "Nagoya",
    "country": "Japan",
    "iata_code": "NGO",
    "_geoloc": {
      "lat": "34.858414",
      "lng": "136.805408"
    },
    "links_count": "169",
    "objectID": "3942"
  },
  {
    "name": "Lanzhou Flygplats",
    "city": "Lanzhou",
    "country": "Kina",
    "iata_code": "LHW",
    "_geoloc": {
      "lat": "36.117",
      "lng": "103.617"
    },
    "links_count": "168",
    "objectID": "6431"
  },
  {
    "name": "Näring",
    "city": "Ninbo",
    "country": "Kina",
    "iata_code": "NGB",
    "_geoloc": {
      "lat": "29.826683",
      "lng": "121.461906"
    },
    "links_count": "168",
    "objectID": "3387"
  },
  {
    "name": "Bryssel Södra",
    "city": "Charleroi",
    "country": "Belgien",
    "iata_code": "CRL",
    "_geoloc": {
      "lat": "50.459197",
      "lng": "4.453817"
    },
    "links_count": "168",
    "objectID": "304"
  },
  {
    "name": "Rhodos Diagoras",
    "city": "Rhodos",
    "country": "Grekland",
    "iata_code": "RHO",
    "_geoloc": {
      "lat": "36.405419",
      "lng": "28.086192"
    },
    "links_count": "168",
    "objectID": "1472"
  },
  {
    "name": "Austin Bergstrom Intl",
    "city": "Austin",
    "country": "USA",
    "iata_code": "FRÅN",
    "_geoloc": {
      "lat": "30.194528",
      "lng": "-97.669889"
    },
    "links_count": "167",
    "objectID": "3673"
  },
  {
    "name": "Raleigh Durham Intl",
    "city": "Raleigh-durham",
    "country": "USA",
    "iata_code": "RDU",
    "_geoloc": {
      "lat": "35.877639",
      "lng": "-78.787472"
    },
    "links_count": "167",
    "objectID": "3626"
  },
  {
    "name": "Newcastle",
    "city": "Newcastle",
    "country": "Storbritannien",
    "iata_code": "NCL",
    "_geoloc": {
      "lat": "55.0375",
      "lng": "-1.691667"
    },
    "links_count": "165",
    "objectID": "521"
  },
  {
    "name": "Schönefeld",
    "city": "Berlin",
    "country": "Tyskland",
    "iata_code": "SXF",
    "_geoloc": {
      "lat": "52.380001",
      "lng": "13.5225"
    },
    "links_count": "165",
    "objectID": "337"
  },
  {
    "name": "Shijiazhuang Daguocun internationella flygplats",
    "city": "Shijiazhuang",
    "country": "Kina",
    "iata_code": "SJW",
    "_geoloc": {
      "lat": "38.280686",
      "lng": "114.6973"
    },
    "links_count": "164",
    "objectID": "6347"
  },
  {
    "name": "Nashville Intl",
    "city": "Nashville",
    "country": "USA",
    "iata_code": "BNA",
    "_geoloc": {
      "lat": "36.124472",
      "lng": "-86.678194"
    },
    "links_count": "164",
    "objectID": "3690"
  },
  {
    "name": "Kung Fahd Intl",
    "city": "Dammam",
    "country": "Saudiarabien",
    "iata_code": "DMM",
    "_geoloc": {
      "lat": "26.471161",
      "lng": "49.79789"
    },
    "links_count": "164",
    "objectID": "2064"
  },
  {
    "name": "Valens",
    "city": "Valens",
    "country": "Spanien",
    "iata_code": "VLC",
    "_geoloc": {
      "lat": "39.489314",
      "lng": "-0.481625"
    },
    "links_count": "163",
    "objectID": "1246"
  },
  {
    "name": "Wenzhou Yongqiang flygplats",
    "city": "Wenzhou",
    "country": "Kina",
    "iata_code": "WNZ",
    "_geoloc": {
      "lat": "27.9122",
      "lng": "120.852"
    },
    "links_count": "162",
    "objectID": "6392"
  },
  {
    "name": "Nya Chitose",
    "city": "Sapporo",
    "country": "Japan",
    "iata_code": "CTS",
    "_geoloc": {
      "lat": "42.7752",
      "lng": "141.692283"
    },
    "links_count": "162",
    "objectID": "2287"
  },
  {
    "name": "Bergamo Orio Al Serio",
    "city": "Bergamo",
    "country": "Italien",
    "iata_code": "BGY",
    "_geoloc": {
      "lat": "45.673889",
      "lng": "9.704166"
    },
    "links_count": "162",
    "objectID": "1525"
  },
  {
    "name": "Cleveland Hopkins Intl",
    "city": "Cleveland",
    "country": "USA",
    "iata_code": "CLE",
    "_geoloc": {
      "lat": "41.411689",
      "lng": "-81.849794"
    },
    "links_count": "161",
    "objectID": "3486"
  },
  {
    "name": "Blagnac",
    "city": "Toulouse",
    "country": "Frankrike",
    "iata_code": "TLS",
    "_geoloc": {
      "lat": "43.629075",
      "lng": "1.363819"
    },
    "links_count": "161",
    "objectID": "1273"
  },
  {
    "name": "Peking Nanyuan flygplats",
    "city": "Peking",
    "country": "Kina",
    "iata_code": "NU",
    "_geoloc": {
      "lat": "39.7825",
      "lng": "116.387778"
    },
    "links_count": "160",
    "objectID": "6341"
  },
  {
    "name": "Leeds Bradford",
    "city": "Leeds",
    "country": "Storbritannien",
    "iata_code": "LBA",
    "_geoloc": {
      "lat": "53.865897",
      "lng": "-1.660569"
    },
    "links_count": "160",
    "objectID": "517"
  },
  {
    "name": "Yuzhny",
    "city": "Tasjkent",
    "country": "Uzbekistan",
    "iata_code": "DET",
    "_geoloc": {
      "lat": "41.257861",
      "lng": "69.281186"
    },
    "links_count": "160",
    "objectID": "2983"
  },
  {
    "name": "Gimhae Intl",
    "city": "Busan",
    "country": "Sydkorea",
    "iata_code": "STÄLLA",
    "_geoloc": {
      "lat": "35.179528",
      "lng": "128.938222"
    },
    "links_count": "160",
    "objectID": "2372"
  },
  {
    "name": "Kansas City Intl",
    "city": "Kansas City",
    "country": "USA",
    "iata_code": "MCI",
    "_geoloc": {
      "lat": "39.297606",
      "lng": "-94.713905"
    },
    "links_count": "159",
    "objectID": "3458"
  },
  {
    "name": "Macau Intl",
    "city": "Macao",
    "country": "Macao",
    "iata_code": "MFM",
    "_geoloc": {
      "lat": "22.149556",
      "lng": "113.591558"
    },
    "links_count": "158",
    "objectID": "3121"
  },
  {
    "name": "Arturo Merino Benitez Intl",
    "city": "Santiago",
    "country": "Chile",
    "iata_code": "SCL",
    "_geoloc": {
      "lat": "-33.392975",
      "lng": "-70.785803"
    },
    "links_count": "158",
    "objectID": "2650"
  },
  {
    "name": "Capodichino",
    "city": "Neapel",
    "country": "Italien",
    "iata_code": "SOL",
    "_geoloc": {
      "lat": "40.886033",
      "lng": "14.290781"
    },
    "links_count": "158",
    "objectID": "1561"
  },
  {
    "name": "Luogang",
    "city": "Hefei",
    "country": "Kina",
    "iata_code": "HFE",
    "_geoloc": {
      "lat": "31.780019",
      "lng": "117.298436"
    },
    "links_count": "154",
    "objectID": "3389"
  },
  {
    "name": "Hannover",
    "city": "Hannover",
    "country": "Tyskland",
    "iata_code": "HÅR",
    "_geoloc": {
      "lat": "52.461056",
      "lng": "9.685078"
    },
    "links_count": "152",
    "objectID": "352"
  },
  {
    "name": "Pisa",
    "city": "Pisa",
    "country": "Italien",
    "iata_code": "PSA",
    "_geoloc": {
      "lat": "43.683917",
      "lng": "10.39275"
    },
    "links_count": "152",
    "objectID": "1562"
  },
  {
    "name": "Cincinnati norra Kentucky Intl",
    "city": "Cincinnati",
    "country": "USA",
    "iata_code": "CVG",
    "_geoloc": {
      "lat": "39.048836",
      "lng": "-84.667822"
    },
    "links_count": "150",
    "objectID": "3488"
  },
  {
    "name": "Minister Pistarini",
    "city": "Buenos Aires",
    "country": "Argentina",
    "iata_code": "EZE",
    "_geoloc": {
      "lat": "-34.822222",
      "lng": "-58.535833"
    },
    "links_count": "149",
    "objectID": "3988"
  },
  {
    "name": "William P Hobby",
    "city": "Houston",
    "country": "USA",
    "iata_code": "HOU",
    "_geoloc": {
      "lat": "29.645419",
      "lng": "-95.278889"
    },
    "links_count": "149",
    "objectID": "3566"
  },
  {
    "name": "Juan Santamaria Intl",
    "city": "San Jose",
    "country": "Costa Rica",
    "iata_code": "SJO",
    "_geoloc": {
      "lat": "9.993861",
      "lng": "-84.208806"
    },
    "links_count": "149",
    "objectID": "1885"
  },
  {
    "name": "Pittsburgh Intl",
    "city": "Pittsburgh",
    "country": "USA",
    "iata_code": "GROP",
    "_geoloc": {
      "lat": "40.491467",
      "lng": "-80.232872"
    },
    "links_count": "148",
    "objectID": "3570"
  },
  {
    "name": "Zia Intl",
    "city": "Dhaka",
    "country": "Bangladesh",
    "iata_code": "DAC",
    "_geoloc": {
      "lat": "23.843333",
      "lng": "90.397781"
    },
    "links_count": "148",
    "objectID": "3076"
  },
  {
    "name": "Hyderabad",
    "city": "Hyderabad",
    "country": "Indien",
    "iata_code": "LÄNGD",
    "_geoloc": {
      "lat": "17.453117",
      "lng": "78.467586"
    },
    "links_count": "147",
    "objectID": "3141"
  },
  {
    "name": "General Mariano Escobedo Intl",
    "city": "Monterrey",
    "country": "Mexico",
    "iata_code": "MTY",
    "_geoloc": {
      "lat": "25.778489",
      "lng": "-100.106878"
    },
    "links_count": "145",
    "objectID": "1825"
  },
  {
    "name": "Torn",
    "city": "Marrakech",
    "country": "Marocko",
    "iata_code": "CANCER",
    "_geoloc": {
      "lat": "31.606886",
      "lng": "-8.0363"
    },
    "links_count": "145",
    "objectID": "1075"
  },
  {
    "name": "Punta Cana Intl",
    "city": "Punta Cana",
    "country": "Dominikanska republiken",
    "iata_code": "PUJ",
    "_geoloc": {
      "lat": "18.567367",
      "lng": "-68.363431"
    },
    "links_count": "143",
    "objectID": "1760"
  },
  {
    "name": "Luxemburg",
    "city": "Luxemburg",
    "country": "Luxemburg",
    "iata_code": "LUX",
    "_geoloc": {
      "lat": "49.626575",
      "lng": "6.211517"
    },
    "links_count": "140",
    "objectID": "629"
  },
  {
    "name": "Edmonton Intl",
    "city": "Edmonton",
    "country": "Kanada",
    "iata_code": "YEG",
    "_geoloc": {
      "lat": "53.309723",
      "lng": "-113.579722"
    },
    "links_count": "139",
    "objectID": "49"
  },
  {
    "name": "Indianapolis Intl",
    "city": "Indianapolis",
    "country": "USA",
    "iata_code": "I",
    "_geoloc": {
      "lat": "39.717331",
      "lng": "-86.294383"
    },
    "links_count": "138",
    "objectID": "3585"
  },
  {
    "name": "Phuket Intl",
    "city": "Phuket",
    "country": "Thailand",
    "iata_code": "HKT",
    "_geoloc": {
      "lat": "8.1132",
      "lng": "98.316872"
    },
    "links_count": "138",
    "objectID": "3179"
  },
  {
    "name": "Flesland",
    "city": "Bergen",
    "country": "Norge",
    "iata_code": "BGO",
    "_geoloc": {
      "lat": "60.293386",
      "lng": "5.218142"
    },
    "links_count": "137",
    "objectID": "636"
  },
  {
    "name": "San Antonio Intl",
    "city": "San Antonio",
    "country": "USA",
    "iata_code": "SUTTIT",
    "_geoloc": {
      "lat": "29.533694",
      "lng": "-98.469778"
    },
    "links_count": "136",
    "objectID": "3621"
  },
  {
    "name": "Eindhoven",
    "city": "Eindhoven",
    "country": "Nederländerna",
    "iata_code": "ETT",
    "_geoloc": {
      "lat": "51.450139",
      "lng": "5.374528"
    },
    "links_count": "135",
    "objectID": "585"
  },
  {
    "name": "Lynden Pindling Intl",
    "city": "Nassau",
    "country": "Bahamas",
    "iata_code": "I",
    "_geoloc": {
      "lat": "25.038958",
      "lng": "-77.466231"
    },
    "links_count": "135",
    "objectID": "1953"
  },
  {
    "name": "Don Muang Intl",
    "city": "Bangkok",
    "country": "Thailand",
    "iata_code": "VARA.",
    "_geoloc": {
      "lat": "13.912583",
      "lng": "100.60675"
    },
    "links_count": "134",
    "objectID": "3157"
  },
  {
    "name": "Almaty",
    "city": "Almaty",
    "country": "Kazakstan",
    "iata_code": "OMRÅDE",
    "_geoloc": {
      "lat": "43.352072",
      "lng": "77.040508"
    },
    "links_count": "134",
    "objectID": "2908"
  },
  {
    "name": "Merignac",
    "city": "Bordeaux",
    "country": "Frankrike",
    "iata_code": "VARA",
    "_geoloc": {
      "lat": "44.828335",
      "lng": "-0.715556"
    },
    "links_count": "134",
    "objectID": "1264"
  },
  {
    "name": "Leopold Sedar Senghor Intl",
    "city": "Dakar",
    "country": "Senegal",
    "iata_code": "AK7",
    "_geoloc": {
      "lat": "14.739708",
      "lng": "-17.490225"
    },
    "links_count": "134",
    "objectID": "1084"
  },
  {
    "name": "Rafik Hariri Intl",
    "city": "Beirut",
    "country": "Libanon",
    "iata_code": "HERRE",
    "_geoloc": {
      "lat": "33.820931",
      "lng": "35.488389"
    },
    "links_count": "133",
    "objectID": "2177"
  },
  {
    "name": "Adnan Menderes",
    "city": "Izmir",
    "country": "Turkiet",
    "iata_code": "ADB",
    "_geoloc": {
      "lat": "38.292392",
      "lng": "27.156953"
    },
    "links_count": "133",
    "objectID": "1706"
  },
  {
    "name": "Sofia",
    "city": "Sofia",
    "country": "Bulgarien",
    "iata_code": "SOF",
    "_geoloc": {
      "lat": "42.695194",
      "lng": "23.406167"
    },
    "links_count": "132",
    "objectID": "1194"
  },
  {
    "name": "Changchun",
    "city": "Changchun",
    "country": "Kina",
    "iata_code": "CGQ",
    "_geoloc": {
      "lat": "43.5412",
      "lng": "125.1201"
    },
    "links_count": "131",
    "objectID": "4380"
  },
  {
    "name": "Yinchuan",
    "city": "Yinchuan",
    "country": "Kina",
    "iata_code": "AB",
    "_geoloc": {
      "lat": "38.481944",
      "lng": "106.009167"
    },
    "links_count": "131",
    "objectID": "4085"
  },
  {
    "name": "Juanda",
    "city": "Surabaya",
    "country": "Indonesiska",
    "iata_code": "UNDER",
    "_geoloc": {
      "lat": "-7.379831",
      "lng": "112.786858"
    },
    "links_count": "131",
    "objectID": "3928"
  },
  {
    "name": "Lijiang flygplats",
    "city": "Lijiang",
    "country": "Kina",
    "iata_code": "LJG",
    "_geoloc": {
      "lat": "26.883333",
      "lng": "100.23333"
    },
    "links_count": "129",
    "objectID": "4033"
  },
  {
    "name": "Kaohsiung Intl",
    "city": "Kaohsiung",
    "country": "Taiwan",
    "iata_code": "KHH",
    "_geoloc": {
      "lat": "22.577094",
      "lng": "120.350006"
    },
    "links_count": "129",
    "objectID": "2264"
  },
  {
    "name": "Stad",
    "city": "London",
    "country": "Storbritannien",
    "iata_code": "BVA",
    "_geoloc": {
      "lat": "51.505278",
      "lng": "0.055278"
    },
    "links_count": "128",
    "objectID": "503"
  },
  {
    "name": "Mashhad",
    "city": "Mashhad",
    "country": "Iran",
    "iata_code": "MHD",
    "_geoloc": {
      "lat": "36.234",
      "lng": "59.643"
    },
    "links_count": "128",
    "objectID": "4331"
  },
  {
    "name": "Sydvästra Florida Intl",
    "city": "Fort Myers",
    "country": "USA",
    "iata_code": "RSW",
    "_geoloc": {
      "lat": "26.536167",
      "lng": "-81.755167"
    },
    "links_count": "128",
    "objectID": "3793"
  },
  {
    "name": "Port Columbus Intl",
    "city": "Columbus",
    "country": "USA",
    "iata_code": "CMH",
    "_geoloc": {
      "lat": "39.997972",
      "lng": "-82.891889"
    },
    "links_count": "128",
    "objectID": "3759"
  },
  {
    "name": "Heydar Alijev",
    "city": "Baku",
    "country": "Azerbajdzjan",
    "iata_code": "ALLA",
    "_geoloc": {
      "lat": "40.4675",
      "lng": "50.046667"
    },
    "links_count": "128",
    "objectID": "2922"
  },
  {
    "name": "Aeroparque Jorge Newbery",
    "city": "Buenos Aires",
    "country": "Argentina",
    "iata_code": "AEP",
    "_geoloc": {
      "lat": "-34.559175",
      "lng": "-58.415606"
    },
    "links_count": "128",
    "objectID": "2442"
  },
  {
    "name": "Bilbao",
    "city": "Bilbao",
    "country": "Spanien",
    "iata_code": "VAR",
    "_geoloc": {
      "lat": "43.301097",
      "lng": "-2.910608"
    },
    "links_count": "128",
    "objectID": "1216"
  },
  {
    "name": "Sevilla",
    "city": "Sevilla",
    "country": "Spanien",
    "iata_code": "SVQ",
    "_geoloc": {
      "lat": "37.418",
      "lng": "-5.893106"
    },
    "links_count": "127",
    "objectID": "1253"
  },
  {
    "name": "Palermo",
    "city": "Palermo",
    "country": "Italien",
    "iata_code": "PMO",
    "_geoloc": {
      "lat": "38.175958",
      "lng": "13.091019"
    },
    "links_count": "126",
    "objectID": "1512"
  },
  {
    "name": "General Mitchell Intl",
    "city": "Milwaukee",
    "country": "USA",
    "iata_code": "HUSTRU",
    "_geoloc": {
      "lat": "42.947222",
      "lng": "-87.896583"
    },
    "links_count": "125",
    "objectID": "3717"
  },
  {
    "name": "Jinnah Intl",
    "city": "Karachi",
    "country": "Pakistan",
    "iata_code": "NÄR",
    "_geoloc": {
      "lat": "24.906547",
      "lng": "67.160797"
    },
    "links_count": "125",
    "objectID": "2206"
  },
  {
    "name": "Mehrabad Intl",
    "city": "Teheran",
    "country": "Iran",
    "iata_code": "THR",
    "_geoloc": {
      "lat": "35.689167",
      "lng": "51.313416"
    },
    "links_count": "125",
    "objectID": "2131"
  },
  {
    "name": "Naha",
    "city": "Okinawa",
    "country": "Japan",
    "iata_code": "FÖRNUFT",
    "_geoloc": {
      "lat": "26.195814",
      "lng": "127.645869"
    },
    "links_count": "123",
    "objectID": "2384"
  },
  {
    "name": "Imam Khomeini",
    "city": "Teheran",
    "country": "Iran",
    "iata_code": "Þ",
    "_geoloc": {
      "lat": "35.416111",
      "lng": "51.152222"
    },
    "links_count": "122",
    "objectID": "4330"
  },
  {
    "name": "Dubrovnik",
    "city": "Dubrovnik",
    "country": "Kroatien",
    "iata_code": "DBV",
    "_geoloc": {
      "lat": "42.561353",
      "lng": "18.268244"
    },
    "links_count": "121",
    "objectID": "1200"
  },
  {
    "name": "Norman Y Mineta San Jose Intl",
    "city": "San Jose",
    "country": "USA",
    "iata_code": "SJC",
    "_geoloc": {
      "lat": "37.3626",
      "lng": "-121.929022"
    },
    "links_count": "120",
    "objectID": "3748"
  },
  {
    "name": "Linate",
    "city": "Milano",
    "country": "Italien",
    "iata_code": "LIN",
    "_geoloc": {
      "lat": "45.445103",
      "lng": "9.276739"
    },
    "links_count": "120",
    "objectID": "1529"
  },
  {
    "name": "Tille",
    "city": "Beauvais",
    "country": "Frankrike",
    "iata_code": "BVA",
    "_geoloc": {
      "lat": "49.454444",
      "lng": "2.112778"
    },
    "links_count": "120",
    "objectID": "1367"
  },
  {
    "name": "Zhuhai flygplats",
    "city": "Zhuhai",
    "country": "Kina",
    "iata_code": "ZUH",
    "_geoloc": {
      "lat": "22.0064",
      "lng": "113.376"
    },
    "links_count": "119",
    "objectID": "6355"
  },
  {
    "name": "Murtala Muhammed",
    "city": "Lagos",
    "country": "Nigeria",
    "iata_code": "DEN",
    "_geoloc": {
      "lat": "6.577369",
      "lng": "3.321156"
    },
    "links_count": "119",
    "objectID": "273"
  },
  {
    "name": "Ted Stevens förankring Intl",
    "city": "Anchorage",
    "country": "USA",
    "iata_code": "ANC",
    "_geoloc": {
      "lat": "61.174361",
      "lng": "-149.996361"
    },
    "links_count": "118",
    "objectID": "3774"
  },
  {
    "name": "Cochin",
    "city": "Kochi",
    "country": "Indien",
    "iata_code": "COK",
    "_geoloc": {
      "lat": "10.155556",
      "lng": "76.391389"
    },
    "links_count": "118",
    "objectID": "3136"
  },
  {
    "name": "Jeju Intl",
    "city": "Cheju",
    "country": "Sydkorea",
    "iata_code": "CJU)(C",
    "_geoloc": {
      "lat": "33.511306",
      "lng": "126.493028"
    },
    "links_count": "118",
    "objectID": "2370"
  },
  {
    "name": "Chaklala",
    "city": "Islamabad",
    "country": "Pakistan",
    "iata_code": "ISB",
    "_geoloc": {
      "lat": "33.616653",
      "lng": "73.099233"
    },
    "links_count": "117",
    "objectID": "2223"
  },
  {
    "name": "Liverpool",
    "city": "Liverpool",
    "country": "Storbritannien",
    "iata_code": "LPL",
    "_geoloc": {
      "lat": "53.333611",
      "lng": "-2.849722"
    },
    "links_count": "116",
    "objectID": "491"
  },
  {
    "name": "Vilnius Intl",
    "city": "Vilnius",
    "country": "Litauen",
    "iata_code": "VNO",
    "_geoloc": {
      "lat": "54.634133",
      "lng": "25.285767"
    },
    "links_count": "116",
    "objectID": "3959"
  },
  {
    "name": "Kongressledamot Luis Eduardo Magalhaes",
    "city": "Salvador",
    "country": "Brasilien",
    "iata_code": "VID",
    "_geoloc": {
      "lat": "-12.910994",
      "lng": "-38.331044"
    },
    "links_count": "116",
    "objectID": "2621"
  },
  {
    "name": "Dalaman",
    "city": "Dalaman",
    "country": "Turkiet",
    "iata_code": "DLM",
    "_geoloc": {
      "lat": "36.713056",
      "lng": "28.7925"
    },
    "links_count": "116",
    "objectID": "1715"
  },
  {
    "name": "Balice",
    "city": "Kraków",
    "country": "Polen",
    "iata_code": "HALS",
    "_geoloc": {
      "lat": "50.077731",
      "lng": "19.784836"
    },
    "links_count": "114",
    "objectID": "669"
  },
  {
    "name": "Princess Juliana Intl",
    "city": "Philipsburg",
    "country": "Nederländska Antillerna",
    "iata_code": "SXM",
    "_geoloc": {
      "lat": "18.040953",
      "lng": "-63.1089"
    },
    "links_count": "114",
    "objectID": "2899"
  },
  {
    "name": "Viracopos",
    "city": "Campinas",
    "country": "Brasilien",
    "iata_code": "WC1",
    "_geoloc": {
      "lat": "-23.0075",
      "lng": "-47.134444"
    },
    "links_count": "114",
    "objectID": "2578"
  },
  {
    "name": "Memphis Intl",
    "city": "Memphis",
    "country": "USA",
    "iata_code": "MEM",
    "_geoloc": {
      "lat": "35.042417",
      "lng": "-89.976667"
    },
    "links_count": "112",
    "objectID": "3473"
  },
  {
    "name": "Laishan",
    "city": "Yantai",
    "country": "Kina",
    "iata_code": "YNT",
    "_geoloc": {
      "lat": "37.401667",
      "lng": "121.371667"
    },
    "links_count": "112",
    "objectID": "3392"
  },
  {
    "name": "Hasanuddin",
    "city": "Ujung Pandang",
    "country": "Indonesiska",
    "iata_code": "HK:",
    "_geoloc": {
      "lat": "-5.061631",
      "lng": "119.554042"
    },
    "links_count": "112",
    "objectID": "3240"
  },
  {
    "name": "Storstads- Oakland Intl",
    "city": "Oakland",
    "country": "USA",
    "iata_code": "EK",
    "_geoloc": {
      "lat": "37.721278",
      "lng": "-122.220722"
    },
    "links_count": "111",
    "objectID": "3453"
  },
  {
    "name": "Allama Iqbal Intl",
    "city": "Lahore",
    "country": "Pakistan",
    "iata_code": "DU",
    "_geoloc": {
      "lat": "31.521564",
      "lng": "74.403594"
    },
    "links_count": "111",
    "objectID": "2207"
  },
  {
    "name": "Cairns Intl",
    "city": "Cairns",
    "country": "Australien",
    "iata_code": "CNS",
    "_geoloc": {
      "lat": "-16.885833",
      "lng": "145.755278"
    },
    "links_count": "110",
    "objectID": "3322"
  },
  {
    "name": "Tancredo Neves Intl",
    "city": "Belo Horizonte",
    "country": "Brasilien",
    "iata_code": "CNF",
    "_geoloc": {
      "lat": "-19.63375",
      "lng": "-43.968856"
    },
    "links_count": "110",
    "objectID": "2537"
  },
  {
    "name": "Sacramento Intl",
    "city": "Sacramento",
    "country": "USA",
    "iata_code": "SMF",
    "_geoloc": {
      "lat": "38.695417",
      "lng": "-121.590778"
    },
    "links_count": "108",
    "objectID": "3817"
  },
  {
    "name": "Minsk 2",
    "city": "Minsk 2",
    "country": "Vitryssland",
    "iata_code": "MSQ",
    "_geoloc": {
      "lat": "53.882469",
      "lng": "28.030731"
    },
    "links_count": "108",
    "objectID": "2954"
  },
  {
    "name": "Kotoka Intl",
    "city": "Accra",
    "country": "Ghana",
    "iata_code": "ACC",
    "_geoloc": {
      "lat": "5.605186",
      "lng": "-0.166786"
    },
    "links_count": "107",
    "objectID": "248"
  },
  {
    "name": "Landvetter",
    "city": "Göteborg",
    "country": "Sverige",
    "iata_code": "FICK",
    "_geoloc": {
      "lat": "57.662836",
      "lng": "12.279819"
    },
    "links_count": "106",
    "objectID": "687"
  },
  {
    "name": "Singel",
    "city": "Stavanger",
    "country": "Norge",
    "iata_code": "SVG",
    "_geoloc": {
      "lat": "58.876778",
      "lng": "5.637856"
    },
    "links_count": "106",
    "objectID": "666"
  },
  {
    "name": "Dusjanbe",
    "city": "Dusjanbe",
    "country": "Tadzjikistan",
    "iata_code": "DYU",
    "_geoloc": {
      "lat": "38.543333",
      "lng": "68.825"
    },
    "links_count": "106",
    "objectID": "2979"
  },
  {
    "name": "Florens",
    "city": "Florens",
    "country": "Italien",
    "iata_code": "FLR",
    "_geoloc": {
      "lat": "43.809953",
      "lng": "11.2051"
    },
    "links_count": "106",
    "objectID": "1563"
  },
  {
    "name": "El Salvador Intl",
    "city": "San Salvador",
    "country": "El Salvador",
    "iata_code": "VILJA",
    "_geoloc": {
      "lat": "13.440947",
      "lng": "-89.055728"
    },
    "links_count": "105",
    "objectID": "1892"
  },
  {
    "name": "Esenboga",
    "city": "Ankara",
    "country": "Turkiet",
    "iata_code": "ESB",
    "_geoloc": {
      "lat": "40.128082",
      "lng": "32.995083"
    },
    "links_count": "105",
    "objectID": "1682"
  },
  {
    "name": "Trä",
    "city": "Funchal",
    "country": "Portugal",
    "iata_code": "FNC",
    "_geoloc": {
      "lat": "32.697889",
      "lng": "-16.774453"
    },
    "links_count": "104",
    "objectID": "4091"
  },
  {
    "name": "Kota Kinabalu Intl",
    "city": "Kota Kinabalu",
    "country": "Malaysia",
    "iata_code": "BKI",
    "_geoloc": {
      "lat": "5.937208",
      "lng": "116.051181"
    },
    "links_count": "104",
    "objectID": "3269"
  },
  {
    "name": "Astana Intl",
    "city": "Tselinograd",
    "country": "Kazakstan",
    "iata_code": "TSE",
    "_geoloc": {
      "lat": "51.022222",
      "lng": "71.466944"
    },
    "links_count": "104",
    "objectID": "2910"
  },
  {
    "name": "Olbia smaragdkusten",
    "city": "Olbia",
    "country": "Italien",
    "iata_code": "OLB",
    "_geoloc": {
      "lat": "40.898661",
      "lng": "9.517628"
    },
    "links_count": "104",
    "objectID": "1520"
  },
  {
    "name": "Bradley Intl",
    "city": "Windsor Locks",
    "country": "USA",
    "iata_code": "BDL",
    "_geoloc": {
      "lat": "41.938889",
      "lng": "-72.683222"
    },
    "links_count": "103",
    "objectID": "3825"
  },
  {
    "name": "Ioannis Kapodistrias Intl",
    "city": "Korfu",
    "country": "Grekland",
    "iata_code": "CFU",
    "_geoloc": {
      "lat": "39.601944",
      "lng": "19.911667"
    },
    "links_count": "103",
    "objectID": "1460"
  },
  {
    "name": "Port Moresby Jacksons Intl",
    "city": "Port Moresby",
    "country": "Papua Nya Guinea",
    "iata_code": "POM",
    "_geoloc": {
      "lat": "-9.443383",
      "lng": "147.22005"
    },
    "links_count": "102",
    "objectID": "5"
  },
  {
    "name": "Adelaide Intl",
    "city": "Adelaide",
    "country": "Australien",
    "iata_code": "ADL",
    "_geoloc": {
      "lat": "-34.945",
      "lng": "138.530556"
    },
    "links_count": "102",
    "objectID": "3341"
  },
  {
    "name": "Abidjan Felix Houphouet Boigny Intl",
    "city": "Abidjan",
    "country": "Elfenbenskusten",
    "iata_code": "ABJ",
    "_geoloc": {
      "lat": "5.261386",
      "lng": "-3.926294"
    },
    "links_count": "102",
    "objectID": "253"
  },
  {
    "name": "Lech Walesa",
    "city": "Gdansk",
    "country": "Polen",
    "iata_code": "GDN",
    "_geoloc": {
      "lat": "54.377569",
      "lng": "18.466222"
    },
    "links_count": "101",
    "objectID": "668"
  },
  {
    "name": "Los Cabos Intl",
    "city": "San Jose Del Cabo",
    "country": "Mexico",
    "iata_code": "SJD",
    "_geoloc": {
      "lat": "23.15185",
      "lng": "-109.721044"
    },
    "links_count": "101",
    "objectID": "1840"
  },
  {
    "name": "Neuenland",
    "city": "Bremen",
    "country": "Tyskland",
    "iata_code": "BRE",
    "_geoloc": {
      "lat": "53.0475",
      "lng": "8.786667"
    },
    "links_count": "100",
    "objectID": "353"
  },
  {
    "name": "Ciampino",
    "city": "Rom",
    "country": "Italien",
    "iata_code": "CIA",
    "_geoloc": {
      "lat": "41.799361",
      "lng": "12.594936"
    },
    "links_count": "100",
    "objectID": "1553"
  },
  {
    "name": "Bari",
    "city": "Bari",
    "country": "Italien",
    "iata_code": "BRI",
    "_geoloc": {
      "lat": "41.138856",
      "lng": "16.760594"
    },
    "links_count": "100",
    "objectID": "1501"
  },
  {
    "name": "Xining Caojiabu flygplats",
    "city": "Xining",
    "country": "Kina",
    "iata_code": "XNN",
    "_geoloc": {
      "lat": "36.5275",
      "lng": "102.043"
    },
    "links_count": "99",
    "objectID": "6366"
  },
  {
    "name": "Yangon Intl",
    "city": "Yangon",
    "country": "Burma",
    "iata_code": "RGN",
    "_geoloc": {
      "lat": "16.907305",
      "lng": "96.133222"
    },
    "links_count": "99",
    "objectID": "3239"
  },
  {
    "name": "Duala",
    "city": "Duala",
    "country": "Kamerun",
    "iata_code": "FÖR",
    "_geoloc": {
      "lat": "4.006081",
      "lng": "9.719481"
    },
    "links_count": "98",
    "objectID": "897"
  },
  {
    "name": "Prins Mohammad Bin Abdulaziz",
    "city": "Medina",
    "country": "Saudiarabien",
    "iata_code": "MED",
    "_geoloc": {
      "lat": "24.553422",
      "lng": "39.705061"
    },
    "links_count": "98",
    "objectID": "2074"
  },
  {
    "name": "Girona",
    "city": "Girona",
    "country": "Spanien",
    "iata_code": "LÄKA UPP",
    "_geoloc": {
      "lat": "41.900969",
      "lng": "2.760547"
    },
    "links_count": "98",
    "objectID": "1222"
  },
  {
    "name": "Mactan Cebu Intl",
    "city": "Cebu",
    "country": "Filippinerna",
    "iata_code": "CEB",
    "_geoloc": {
      "lat": "10.307542",
      "lng": "123.979439"
    },
    "links_count": "97",
    "objectID": "4206"
  },
  {
    "name": "Orlando Sanford Intl",
    "city": "Sanford",
    "country": "USA",
    "iata_code": "SFB",
    "_geoloc": {
      "lat": "28.777639",
      "lng": "-81.237489"
    },
    "links_count": "97",
    "objectID": "4167"
  },
  {
    "name": "Split",
    "city": "Split",
    "country": "Kroatien",
    "iata_code": "SPU",
    "_geoloc": {
      "lat": "43.538944",
      "lng": "16.297964"
    },
    "links_count": "97",
    "objectID": "1206"
  },
  {
    "name": "Halifax Intl",
    "city": "Halifax",
    "country": "Kanada",
    "iata_code": "YHZ",
    "_geoloc": {
      "lat": "44.880833",
      "lng": "-63.50861"
    },
    "links_count": "95",
    "objectID": "73"
  },
  {
    "name": "Chiang Mai Intl",
    "city": "Chiang Mai",
    "country": "Thailand",
    "iata_code": "CNX",
    "_geoloc": {
      "lat": "18.766847",
      "lng": "98.962644"
    },
    "links_count": "95",
    "objectID": "3931"
  },
  {
    "name": "Nurnberg",
    "city": "Nuernberg",
    "country": "Tyskland",
    "iata_code": "NAKEN",
    "_geoloc": {
      "lat": "49.4987",
      "lng": "11.066897"
    },
    "links_count": "95",
    "objectID": "347"
  },
  {
    "name": "Tripoli Intl",
    "city": "Tripoli",
    "country": "Libyen",
    "iata_code": "DRICKS",
    "_geoloc": {
      "lat": "32.663544",
      "lng": "13.159011"
    },
    "links_count": "95",
    "objectID": "1157"
  },
  {
    "name": "Wuxi flygplats",
    "city": "Wuxi",
    "country": "Kina",
    "iata_code": "WUX",
    "_geoloc": {
      "lat": "31.4944",
      "lng": "120.429"
    },
    "links_count": "94",
    "objectID": "6390"
  },
  {
    "name": "Billund",
    "city": "Billund",
    "country": "Danmark",
    "iata_code": "BLL",
    "_geoloc": {
      "lat": "55.740322",
      "lng": "9.151778"
    },
    "links_count": "94",
    "objectID": "608"
  },
  {
    "name": "Frankfurt Hahn",
    "city": "Hahn",
    "country": "Tyskland",
    "iata_code": "HHN",
    "_geoloc": {
      "lat": "49.948672",
      "lng": "7.263892"
    },
    "links_count": "94",
    "objectID": "355"
  },
  {
    "name": "Congonhas",
    "city": "Sao Paulo",
    "country": "Brasilien",
    "iata_code": "CGH",
    "_geoloc": {
      "lat": "-23.626692",
      "lng": "-46.655375"
    },
    "links_count": "94",
    "objectID": "2618"
  },
  {
    "name": "Amerika Intl",
    "city": "Santo Domingo",
    "country": "Dominikanska republiken",
    "iata_code": "SDQ",
    "_geoloc": {
      "lat": "18.429664",
      "lng": "-69.668925"
    },
    "links_count": "93",
    "objectID": "1762"
  },
  {
    "name": "Luanda 4 februari",
    "city": "Luanda",
    "country": "Angola",
    "iata_code": "GOSSE",
    "_geoloc": {
      "lat": "-8.858375",
      "lng": "13.231178"
    },
    "links_count": "92",
    "objectID": "951"
  },
  {
    "name": "Dubai Al Maktoum",
    "city": "Dubai",
    "country": "Förenade Arabemiraten",
    "iata_code": "DWC",
    "_geoloc": {
      "lat": "24.55056",
      "lng": "55.103174"
    },
    "links_count": "92",
    "objectID": "8076"
  },
  {
    "name": "Emelyanovo",
    "city": "Krasnoyarsk",
    "country": "Ryssland",
    "iata_code": "KJA",
    "_geoloc": {
      "lat": "56.18",
      "lng": "92.475"
    },
    "links_count": "92",
    "objectID": "4374"
  },
  {
    "name": "Licenciado Gustavo Diaz Ordaz Intl",
    "city": "Puerto Vallarta",
    "country": "Mexico",
    "iata_code": "PVR",
    "_geoloc": {
      "lat": "20.680083",
      "lng": "-105.254167"
    },
    "links_count": "92",
    "objectID": "1836"
  },
  {
    "name": "Jacksonville Intl",
    "city": "Jacksonville",
    "country": "USA",
    "iata_code": "JAX",
    "_geoloc": {
      "lat": "30.494056",
      "lng": "-81.687861"
    },
    "links_count": "91",
    "objectID": "3712"
  },
  {
    "name": "Pashkovskij",
    "city": "Krasnodar",
    "country": "Ryssland",
    "iata_code": "JR3",
    "_geoloc": {
      "lat": "45.034689",
      "lng": "39.170539"
    },
    "links_count": "91",
    "objectID": "2960"
  },
  {
    "name": "Keflaviks internationella flygplats",
    "city": "Keflavik",
    "country": "Island",
    "iata_code": "KEF",
    "_geoloc": {
      "lat": "63.985",
      "lng": "-22.605556"
    },
    "links_count": "91",
    "objectID": "16"
  },
  {
    "name": "Enfidha - Zine El Abidine Ben Ali internationella flygplats",
    "city": "Enfidha",
    "country": "Tunisien",
    "iata_code": "NBE",
    "_geoloc": {
      "lat": "36.075833",
      "lng": "10.438611"
    },
    "links_count": "90",
    "objectID": "7447"
  },
  {
    "name": "Darwin Intl",
    "city": "Darwin",
    "country": "Australien",
    "iata_code": "DRW",
    "_geoloc": {
      "lat": "-12.4083333",
      "lng": "130.87266"
    },
    "links_count": "90",
    "objectID": "3999"
  },
  {
    "name": "Zvartnots",
    "city": "Yerevan",
    "country": "Armenien",
    "iata_code": "EVN",
    "_geoloc": {
      "lat": "40.147275",
      "lng": "44.395881"
    },
    "links_count": "90",
    "objectID": "3964"
  },
  {
    "name": "Manas",
    "city": "Bishkek",
    "country": "Kirgizistan",
    "iata_code": "FRU",
    "_geoloc": {
      "lat": "43.061306",
      "lng": "74.477556"
    },
    "links_count": "90",
    "objectID": "2912"
  },
  {
    "name": "Reina Beatrix Intl",
    "city": "Oranjestad Hotell",
    "country": "Aruba",
    "iata_code": "AJ",
    "_geoloc": {
      "lat": "12.501389",
      "lng": "-70.015221"
    },
    "links_count": "90",
    "objectID": "2895"
  },
  {
    "name": "Souda",
    "city": "Chania",
    "country": "Grekland",
    "iata_code": "CHQ",
    "_geoloc": {
      "lat": "35.531747",
      "lng": "24.149678"
    },
    "links_count": "90",
    "objectID": "1474"
  },
  {
    "name": "Kos",
    "city": "Kos",
    "country": "Grekland",
    "iata_code": "KGS",
    "_geoloc": {
      "lat": "36.793335",
      "lng": "27.091667"
    },
    "links_count": "90",
    "objectID": "1458"
  },
  {
    "name": "Sangster Intl",
    "city": "Montego Bay",
    "country": "Jamaica",
    "iata_code": "MBJ",
    "_geoloc": {
      "lat": "18.503717",
      "lng": "-77.913358"
    },
    "links_count": "89",
    "objectID": "1780"
  },
  {
    "name": "Ottawa Macdonald Cartier Intl",
    "city": "Ottawa",
    "country": "Kanada",
    "iata_code": "YOW",
    "_geoloc": {
      "lat": "45.3225",
      "lng": "-75.669167"
    },
    "links_count": "89",
    "objectID": "100"
  },
  {
    "name": "Quanzhou flygplats",
    "city": "Quanzhou",
    "country": "Kina",
    "iata_code": "JJN",
    "_geoloc": {
      "lat": "24.7964",
      "lng": "118.59"
    },
    "links_count": "88",
    "objectID": "6386"
  },
  {
    "name": "Palm Beach Intl",
    "city": "West Palm Beach",
    "country": "USA",
    "iata_code": "PBI",
    "_geoloc": {
      "lat": "26.683161",
      "lng": "-80.095589"
    },
    "links_count": "88",
    "objectID": "3722"
  },
  {
    "name": "Tribhuvan Intl",
    "city": "Katmandu",
    "country": "Nepal",
    "iata_code": "KTM",
    "_geoloc": {
      "lat": "27.696583",
      "lng": "85.3591"
    },
    "links_count": "88",
    "objectID": "3125"
  },
  {
    "name": "Jose Marti Intl",
    "city": "Havanna",
    "country": "Kuba",
    "iata_code": "HAV",
    "_geoloc": {
      "lat": "22.989153",
      "lng": "-82.409086"
    },
    "links_count": "87",
    "objectID": "1909"
  },
  {
    "name": "Kapstaden Intl",
    "city": "Kapstaden",
    "country": "Sydafrika",
    "iata_code": "CPT",
    "_geoloc": {
      "lat": "-33.964806",
      "lng": "18.601667"
    },
    "links_count": "86",
    "objectID": "797"
  },
  {
    "name": "Vaernes",
    "city": "Trondheim",
    "country": "Norge",
    "iata_code": "TRD",
    "_geoloc": {
      "lat": "63.457556",
      "lng": "10.92425"
    },
    "links_count": "86",
    "objectID": "665"
  },
  {
    "name": "John Wayne Arpt Orange Co",
    "city": "Santa Ana",
    "country": "USA",
    "iata_code": "I",
    "_geoloc": {
      "lat": "33.675667",
      "lng": "-117.868222"
    },
    "links_count": "86",
    "objectID": "3867"
  },
  {
    "name": "Salgado Son",
    "city": "Porto Alegre",
    "country": "Brasilien",
    "iata_code": "POA",
    "_geoloc": {
      "lat": "-29.994428",
      "lng": "-51.171428"
    },
    "links_count": "86",
    "objectID": "2599"
  },
  {
    "name": "Alfonso Pena",
    "city": "Curitiba",
    "country": "Brasilien",
    "iata_code": "CWB",
    "_geoloc": {
      "lat": "-25.528475",
      "lng": "-49.175775"
    },
    "links_count": "86",
    "objectID": "2545"
  },
  {
    "name": "Turin",
    "city": "Turin",
    "country": "Italien",
    "iata_code": "TRN",
    "_geoloc": {
      "lat": "45.200761",
      "lng": "7.649631"
    },
    "links_count": "86",
    "objectID": "1526"
  },
  {
    "name": "Diamant",
    "city": "Cagliari",
    "country": "Italien",
    "iata_code": "CAG",
    "_geoloc": {
      "lat": "39.251469",
      "lng": "9.054283"
    },
    "links_count": "86",
    "objectID": "1519"
  },
  {
    "name": "Male intl",
    "city": "Male",
    "country": "Maldiverna",
    "iata_code": "MLE",
    "_geoloc": {
      "lat": "4.191833",
      "lng": "73.529128"
    },
    "links_count": "85",
    "objectID": "3156"
  },
  {
    "name": "Zagreb",
    "city": "Zagreb",
    "country": "Kroatien",
    "iata_code": "SÅG",
    "_geoloc": {
      "lat": "45.742931",
      "lng": "16.068778"
    },
    "links_count": "85",
    "objectID": "1208"
  },
  {
    "name": "Paphos Intl",
    "city": "Paphos",
    "country": "Cypern",
    "iata_code": "PFO",
    "_geoloc": {
      "lat": "34.718039",
      "lng": "32.485731"
    },
    "links_count": "85",
    "objectID": "1198"
  },
  {
    "name": "Kahului",
    "city": "Kahului",
    "country": "USA",
    "iata_code": "OGG",
    "_geoloc": {
      "lat": "20.89865",
      "lng": "-156.430458"
    },
    "links_count": "84",
    "objectID": "3456"
  },
  {
    "name": "Penang Intl",
    "city": "Penang",
    "country": "Malaysia",
    "iata_code": "PENNA",
    "_geoloc": {
      "lat": "5.297139",
      "lng": "100.276864"
    },
    "links_count": "84",
    "objectID": "3308"
  },
  {
    "name": "Thiruvananthapuram Intl",
    "city": "Trivandrum",
    "country": "Indien",
    "iata_code": "TRV",
    "_geoloc": {
      "lat": "8.482122",
      "lng": "76.920114"
    },
    "links_count": "84",
    "objectID": "3153"
  },
  {
    "name": "Osaka Intl",
    "city": "Osaka",
    "country": "Japan",
    "iata_code": "ITM",
    "_geoloc": {
      "lat": "34.785528",
      "lng": "135.438222"
    },
    "links_count": "84",
    "objectID": "2334"
  },
  {
    "name": "Albuquerque internationella sunport",
    "city": "Albuquerque",
    "country": "USA",
    "iata_code": "ABQ",
    "_geoloc": {
      "lat": "35.0402222",
      "lng": "-106.6091944"
    },
    "links_count": "83",
    "objectID": "4019"
  },
  {
    "name": "Louisville internationella flygplats",
    "city": "Louisville",
    "country": "USA",
    "iata_code": "SDF",
    "_geoloc": {
      "lat": "38.1740858",
      "lng": "-85.7364989"
    },
    "links_count": "83",
    "objectID": "4014"
  },
  {
    "name": "Nadi Intl",
    "city": "Nandi",
    "country": "Fiji",
    "iata_code": "I",
    "_geoloc": {
      "lat": "-17.755392",
      "lng": "177.443378"
    },
    "links_count": "83",
    "objectID": "1960"
  },
  {
    "name": "General Abelardo L Rodriguez Intl",
    "city": "Tijuana",
    "country": "Mexico",
    "iata_code": "Hans",
    "_geoloc": {
      "lat": "32.541064",
      "lng": "-116.970158"
    },
    "links_count": "83",
    "objectID": "1847"
  },
  {
    "name": "Herrn Seewoosagur Ramgoolam Intl",
    "city": "Plaisance",
    "country": "Mauritius",
    "iata_code": "MRU",
    "_geoloc": {
      "lat": "-20.430235",
      "lng": "57.6836"
    },
    "links_count": "82",
    "objectID": "893"
  },
  {
    "name": "Dyce",
    "city": "Aberdeen",
    "country": "Storbritannien",
    "iata_code": "ABZ",
    "_geoloc": {
      "lat": "57.201944",
      "lng": "-2.197778"
    },
    "links_count": "82",
    "objectID": "532"
  },
  {
    "name": "Irkutsk",
    "city": "Irkutsk",
    "country": "Ryssland",
    "iata_code": "IKT",
    "_geoloc": {
      "lat": "52.268028",
      "lng": "104.388975"
    },
    "links_count": "82",
    "objectID": "2937"
  },
  {
    "name": "Will Rogers värld",
    "city": "Oklahoma City",
    "country": "USA",
    "iata_code": "OKC",
    "_geoloc": {
      "lat": "35.393089",
      "lng": "-97.600733"
    },
    "links_count": "81",
    "objectID": "3863"
  },
  {
    "name": "Borg El arabiska intl",
    "city": "Alexandria",
    "country": "Egypten",
    "iata_code": "HBE",
    "_geoloc": {
      "lat": "30.917669",
      "lng": "29.696408"
    },
    "links_count": "81",
    "objectID": "3410"
  },
  {
    "name": "Siem Reap",
    "city": "Siem Reap",
    "country": "Kambodja",
    "iata_code": "SE1",
    "_geoloc": {
      "lat": "13.410666",
      "lng": "103.81284"
    },
    "links_count": "81",
    "objectID": "3035"
  },
  {
    "name": "Winnipeg Intl",
    "city": "Winnipeg",
    "country": "Kanada",
    "iata_code": "YWG",
    "_geoloc": {
      "lat": "49.910036",
      "lng": "-97.239886"
    },
    "links_count": "81",
    "objectID": "160"
  },
  {
    "name": "Khartoum",
    "city": "Khartoum",
    "country": "Sudan",
    "iata_code": "KRT",
    "_geoloc": {
      "lat": "15.589497",
      "lng": "32.553161"
    },
    "links_count": "81",
    "objectID": "1175"
  },
  {
    "name": "Cadjehoun",
    "city": "Cotonou",
    "country": "Benin",
    "iata_code": "KUTTRA",
    "_geoloc": {
      "lat": "6.357228",
      "lng": "2.384353"
    },
    "links_count": "80",
    "objectID": "245"
  },
  {
    "name": "Sungshan",
    "city": "Taipei",
    "country": "Taiwan",
    "iata_code": "TSA",
    "_geoloc": {
      "lat": "25.069722",
      "lng": "121.5525"
    },
    "links_count": "80",
    "objectID": "2275"
  },
  {
    "name": "Lesquin",
    "city": "Lille",
    "country": "Frankrike",
    "iata_code": "LIL",
    "_geoloc": {
      "lat": "50.561942",
      "lng": "3.089444"
    },
    "links_count": "80",
    "objectID": "1399"
  },
  {
    "name": "Leipzig Halle",
    "city": "Leipzig",
    "country": "Tyskland",
    "iata_code": "KRATER",
    "_geoloc": {
      "lat": "51.432447",
      "lng": "12.241633"
    },
    "links_count": "79",
    "objectID": "348"
  },
  {
    "name": "Hurghada Intl",
    "city": "Hurghada",
    "country": "Egypten",
    "iata_code": "HRG",
    "_geoloc": {
      "lat": "27.178317",
      "lng": "33.799436"
    },
    "links_count": "79",
    "objectID": "1130"
  },
  {
    "name": "Mariscal Sucre Intl",
    "city": "Quito",
    "country": "Ecuador",
    "iata_code": "UIO",
    "_geoloc": {
      "lat": "-0.141144",
      "lng": "-78.488214"
    },
    "links_count": "78",
    "objectID": "2688"
  },
  {
    "name": "Gimpogimpo",
    "city": "Seoul",
    "country": "Sydkorea",
    "iata_code": "GMP",
    "_geoloc": {
      "lat": "37.558311",
      "lng": "126.790586"
    },
    "links_count": "78",
    "objectID": "2378"
  },
  {
    "name": "Shiraz Shahid Dastghaib Intl",
    "city": "Shiraz",
    "country": "Iran",
    "iata_code": "SYZ",
    "_geoloc": {
      "lat": "29.539242",
      "lng": "52.589786"
    },
    "links_count": "78",
    "objectID": "2157"
  },
  {
    "name": "Fält Dell Gold",
    "city": "Ajaccio",
    "country": "Frankrike",
    "iata_code": "AJA",
    "_geoloc": {
      "lat": "41.923637",
      "lng": "8.802917"
    },
    "links_count": "78",
    "objectID": "1324"
  },
  {
    "name": "Kigali Intl",
    "city": "Kigali",
    "country": "Rwanda",
    "iata_code": "KGL",
    "_geoloc": {
      "lat": "-1.968628",
      "lng": "30.13945"
    },
    "links_count": "78",
    "objectID": "1165"
  },
  {
    "name": "Faa\\\\'a Internationella",
    "city": "Papeete",
    "country": "Franska Polynesien",
    "iata_code": "PPT",
    "_geoloc": {
      "lat": "-17.556667",
      "lng": "-149.611389"
    },
    "links_count": "77",
    "objectID": "4075"
  },
  {
    "name": "Sharm El Sheikh Intl",
    "city": "Sharm El Sheikh",
    "country": "Egypten",
    "iata_code": "SSH",
    "_geoloc": {
      "lat": "27.977222",
      "lng": "34.394722"
    },
    "links_count": "77",
    "objectID": "4057"
  },
  {
    "name": "Norrskenet",
    "city": "Guatemala City",
    "country": "Guatemala",
    "iata_code": "HÅLA",
    "_geoloc": {
      "lat": "14.583272",
      "lng": "-90.527475"
    },
    "links_count": "77",
    "objectID": "1767"
  },
  {
    "name": "Villafranca",
    "city": "Villafranca",
    "country": "Italien",
    "iata_code": "VRN",
    "_geoloc": {
      "lat": "45.395706",
      "lng": "10.888533"
    },
    "links_count": "77",
    "objectID": "1550"
  },
  {
    "name": "Jersey",
    "city": "Jersey",
    "country": "Jersey",
    "iata_code": "EFTERSOM",
    "_geoloc": {
      "lat": "49.207947",
      "lng": "-2.195508"
    },
    "links_count": "76",
    "objectID": "499"
  },
  {
    "name": "Nedre Rhen",
    "city": "Weeze",
    "country": "Tyskland",
    "iata_code": "NRN",
    "_geoloc": {
      "lat": "51.602222",
      "lng": "6.141944"
    },
    "links_count": "76",
    "objectID": "4198"
  },
  {
    "name": "Tallinn",
    "city": "Tallinn",
    "country": "Estland",
    "iata_code": "TLL",
    "_geoloc": {
      "lat": "59.413317",
      "lng": "24.832844"
    },
    "links_count": "76",
    "objectID": "415"
  },
  {
    "name": "Richmond Intl",
    "city": "Richmond",
    "country": "USA",
    "iata_code": "RIC",
    "_geoloc": {
      "lat": "37.505167",
      "lng": "-77.319667"
    },
    "links_count": "76",
    "objectID": "3608"
  },
  {
    "name": "Yakutsk",
    "city": "Yakutsk",
    "country": "Ryssland",
    "iata_code": "ETT",
    "_geoloc": {
      "lat": "62.09325",
      "lng": "129.770672"
    },
    "links_count": "76",
    "objectID": "2923"
  },
  {
    "name": "Treviso",
    "city": "Treviso",
    "country": "Italien",
    "iata_code": "TSF",
    "_geoloc": {
      "lat": "45.6484",
      "lng": "12.194422"
    },
    "links_count": "76",
    "objectID": "1539"
  },
  {
    "name": "Sanaa Intl",
    "city": "Sanaa",
    "country": "Jemen",
    "iata_code": "SÅG",
    "_geoloc": {
      "lat": "15.476258",
      "lng": "44.219739"
    },
    "links_count": "75",
    "objectID": "3980"
  },
  {
    "name": "Dallas förälskelse Fld",
    "city": "Dallas",
    "country": "USA",
    "iata_code": "FRÅN",
    "_geoloc": {
      "lat": "32.847111",
      "lng": "-96.851778"
    },
    "links_count": "75",
    "objectID": "3502"
  },
  {
    "name": "Nova",
    "city": "Khabarovsk",
    "country": "Ryssland",
    "iata_code": "KHV",
    "_geoloc": {
      "lat": "48.528044",
      "lng": "135.188361"
    },
    "links_count": "75",
    "objectID": "2927"
  },
  {
    "name": "By",
    "city": "Sandefjord",
    "country": "Norge",
    "iata_code": "TRF",
    "_geoloc": {
      "lat": "59.186703",
      "lng": "10.258628"
    },
    "links_count": "74",
    "objectID": "664"
  },
  {
    "name": "Mossa",
    "city": "Rygge",
    "country": "Norge",
    "iata_code": "TILLBAKA",
    "_geoloc": {
      "lat": "59.378933",
      "lng": "10.785389"
    },
    "links_count": "74",
    "objectID": "657"
  },
  {
    "name": "Changzhou",
    "city": "Changzhou",
    "country": "Kina",
    "iata_code": "CZX",
    "_geoloc": {
      "lat": "31.941667",
      "lng": "119.711667"
    },
    "links_count": "74",
    "objectID": "4109"
  },
  {
    "name": "Norfolk Intl",
    "city": "Norfolk",
    "country": "USA",
    "iata_code": "ORF",
    "_geoloc": {
      "lat": "36.894611",
      "lng": "-76.201222"
    },
    "links_count": "74",
    "objectID": "3611"
  },
  {
    "name": "Zarzis",
    "city": "Djerba",
    "country": "Tunisien",
    "iata_code": "IGÅR",
    "_geoloc": {
      "lat": "33.875031",
      "lng": "10.775461"
    },
    "links_count": "73",
    "objectID": "293"
  },
  {
    "name": "Sepinggan",
    "city": "Balikpapan",
    "country": "Indonesiska",
    "iata_code": "BPN",
    "_geoloc": {
      "lat": "-1.268272",
      "lng": "116.894478"
    },
    "links_count": "72",
    "objectID": "3919"
  },
  {
    "name": "Guararapes Gilberto Freyre Intl",
    "city": "Recife",
    "country": "Brasilien",
    "iata_code": "REC",
    "_geoloc": {
      "lat": "-8.126794",
      "lng": "-34.923039"
    },
    "links_count": "72",
    "objectID": "2610"
  },
  {
    "name": "Christchurch Intl",
    "city": "Christchurch",
    "country": "Nya Zeeland",
    "iata_code": "CHC",
    "_geoloc": {
      "lat": "-43.489358",
      "lng": "172.532225"
    },
    "links_count": "72",
    "objectID": "2009"
  },
  {
    "name": "Poretta",
    "city": "Bastia",
    "country": "Frankrike",
    "iata_code": "ÖL",
    "_geoloc": {
      "lat": "42.552664",
      "lng": "9.483731"
    },
    "links_count": "72",
    "objectID": "1321"
  },
  {
    "name": "Tirana Rinas",
    "city": "Tirana",
    "country": "Albanien",
    "iata_code": "TIA",
    "_geoloc": {
      "lat": "41.414742",
      "lng": "19.720561"
    },
    "links_count": "72",
    "objectID": "1190"
  },
  {
    "name": "Wai Sha flygplats",
    "city": "Shantou",
    "country": "Kina",
    "iata_code": "SWA",
    "_geoloc": {
      "lat": "23.4",
      "lng": "116.683"
    },
    "links_count": "71",
    "objectID": "4302"
  },
  {
    "name": "Buffalo Niagara Intl",
    "city": "Buffalo",
    "country": "USA",
    "iata_code": "BUF",
    "_geoloc": {
      "lat": "42.940525",
      "lng": "-78.732167"
    },
    "links_count": "71",
    "objectID": "3820"
  },
  {
    "name": "Birmingham Intl",
    "city": "Birmingham",
    "country": "USA",
    "iata_code": "BHM",
    "_geoloc": {
      "lat": "33.562942",
      "lng": "-86.75355"
    },
    "links_count": "71",
    "objectID": "3811"
  },
  {
    "name": "Jose Joaquin De Olmedo Intl",
    "city": "Guayaquil",
    "country": "Ecuador",
    "iata_code": "GYE",
    "_geoloc": {
      "lat": "-2.157419",
      "lng": "-79.883558"
    },
    "links_count": "71",
    "objectID": "2673"
  },
  {
    "name": "Pinto Martins Intl",
    "city": "Fortaleza",
    "country": "Brasilien",
    "iata_code": "FÖR",
    "_geoloc": {
      "lat": "-3.776283",
      "lng": "-38.532556"
    },
    "links_count": "71",
    "objectID": "2559"
  },
  {
    "name": "Belfast Intl",
    "city": "Belfast",
    "country": "Storbritannien",
    "iata_code": "BFS",
    "_geoloc": {
      "lat": "54.6575",
      "lng": "-6.215833"
    },
    "links_count": "70",
    "objectID": "465"
  },
  {
    "name": "Ahmedabad",
    "city": "Ahmedabad",
    "country": "Indien",
    "iata_code": "AMD",
    "_geoloc": {
      "lat": "23.077242",
      "lng": "72.63465"
    },
    "links_count": "70",
    "objectID": "2994"
  },
  {
    "name": "Piarco",
    "city": "Port of Spain",
    "country": "Trinidad och Tobago",
    "iata_code": "POS",
    "_geoloc": {
      "lat": "10.595369",
      "lng": "-61.337242"
    },
    "links_count": "70",
    "objectID": "2902"
  },
  {
    "name": "Val De Cans Intl",
    "city": "Belém",
    "country": "Brasilien",
    "iata_code": "VACKER",
    "_geoloc": {
      "lat": "-1.37925",
      "lng": "-48.476292"
    },
    "links_count": "70",
    "objectID": "2526"
  },
  {
    "name": "Guam Intl",
    "city": "Agana",
    "country": "Guam",
    "iata_code": "TANDKÖTT",
    "_geoloc": {
      "lat": "13.48345",
      "lng": "144.795983"
    },
    "links_count": "70",
    "objectID": "2246"
  },
  {
    "name": "Santiago",
    "city": "Santiago",
    "country": "Spanien",
    "iata_code": "SCQ",
    "_geoloc": {
      "lat": "42.896333",
      "lng": "-8.415144"
    },
    "links_count": "70",
    "objectID": "1243"
  },
  {
    "name": "Menorca",
    "city": "Menorca",
    "country": "Spanien",
    "iata_code": "MAH",
    "_geoloc": {
      "lat": "39.862597",
      "lng": "4.218647"
    },
    "links_count": "70",
    "objectID": "1231"
  },